[{"county": "Alaska", "lat": 64.2008413, "state": "AK", "lng": -149.4936733}, {"county": "Autauga", "lat": 32.5791817, "state": "AL", "lng": -86.49965460000001}, {"county": "Baldwin", "lat": 30.6010744, "state": "AL", "lng": -87.77633329999999}, {"county": "Barbour", "lat": 31.8172896, "state": "AL", "lng": -85.35496499999999}, {"county": "Bibb", "lat": 32.9562798, "state": "AL", "lng": -87.14228949999999}, {"county": "Blount", "lat": 34.0145152, "state": "AL", "lng": -86.49965460000001}, {"county": "Bullock", "lat": 32.0573536, "state": "AL", "lng": -85.7256372}, {"county": "Butler", "lat": 32.0895908, "state": "AL", "lng": -88.2219652}, {"county": "Calhoun", "lat": 33.7701576, "state": "AL", "lng": -85.80766}, {"county": "Chambers", "lat": 32.9028048, "state": "AL", "lng": -85.35496499999999}, {"county": "Cherokee", "lat": 34.7570342, "state": "AL", "lng": -87.9728143}, {"county": "Chilton", "lat": 32.944392, "state": "AL", "lng": -86.6611083}, {"county": "Choctaw", "lat": 32.0716631, "state": "AL", "lng": -88.24611829999999}, {"county": "Clarke", "lat": 31.7002461, "state": "AL", "lng": -87.77633329999999}, {"county": "Clay", "lat": 33.7026013, "state": "AL", "lng": -86.5997096}, {"county": "Cleburne", "lat": 33.6481611, "state": "AL", "lng": -85.62968169999999}, {"county": "Coffee", "lat": 31.4751172, "state": "AL", "lng": -86.0121573}, {"county": "Colbert", "lat": 34.7117567, "state": "AL", "lng": -87.89424509999999}, {"county": "Conecuh", "lat": 31.501571, "state": "AL", "lng": -86.9824288}, {"county": "Coosa", "lat": 32.8897772, "state": "AL", "lng": -86.2196937}, {"county": "Covington", "lat": 31.3066438, "state": "AL", "lng": -86.49965460000001}, {"county": "Crenshaw", "lat": 31.6671872, "state": "AL", "lng": -86.3376761}, {"county": "Cullman", "lat": 34.1748208, "state": "AL", "lng": -86.8436124}, {"county": "Dale", "lat": 31.4645298, "state": "AL", "lng": -85.684578}, {"county": "Dallas", "lat": 32.2332138, "state": "AL", "lng": -87.14228949999999}, {"county": "DeKalb", "lat": 34.5211397, "state": "AL", "lng": -85.684578}, {"county": "Elmore", "lat": 32.5387448, "state": "AL", "lng": -86.3149712}, {"county": "Escambia", "lat": 31.1394734, "state": "AL", "lng": -87.14228949999999}, {"county": "Etowah", "lat": 34.0455341, "state": "AL", "lng": -86.05296039999999}, {"county": "Fayette", "lat": 33.6845539, "state": "AL", "lng": -87.8308522}, {"county": "Franklin", "lat": 32.4784706, "state": "AL", "lng": -85.8024562}, {"county": "Geneva", "lat": 31.0329572, "state": "AL", "lng": -85.8638242}, {"county": "Greene", "lat": 32.9718107, "state": "AL", "lng": -87.9334803}, {"county": "Hale", "lat": 32.7859102, "state": "AL", "lng": -87.6186379}, {"county": "Henry", "lat": 31.4469377, "state": "AL", "lng": -85.1894045}, {"county": "Houston", "lat": 34.1414925, "state": "AL", "lng": -87.2580686}, {"county": "Jackson", "lat": 31.5090521, "state": "AL", "lng": -87.8944435}, {"county": "Jefferson", "lat": 33.4914122, "state": "AL", "lng": -86.9824288}, {"county": "Lamar", "lat": 33.6923649, "state": "AL", "lng": -88.0900762}, {"county": "Lauderdale", "lat": 34.8840876, "state": "AL", "lng": -87.658113}, {"county": "Lawrence", "lat": 34.567428, "state": "AL", "lng": -87.30161319999999}, {"county": "Lee", "lat": 32.5888702, "state": "AL", "lng": -85.39627689999999}, {"county": "Limestone", "lat": 34.78000720000001, "state": "AL", "lng": -86.9423801}, {"county": "Lowndes", "lat": 32.221464, "state": "AL", "lng": -86.6611083}, {"county": "Macon", "lat": 32.3731182, "state": "AL", "lng": -85.684578}, {"county": "Madison", "lat": 34.6992579, "state": "AL", "lng": -86.74833180000002}, {"county": "Marengo", "lat": 32.2459085, "state": "AL", "lng": -87.77633329999999}, {"county": "Marion", "lat": 32.6323536, "state": "AL", "lng": -87.3191655}, {"county": "Marshall", "lat": 34.3652297, "state": "AL", "lng": -86.3376761}, {"county": "Mobile", "lat": 30.6953657, "state": "AL", "lng": -88.0398912}, {"county": "Monroe", "lat": 31.5119068, "state": "AL", "lng": -87.460397}, {"county": "Montgomery", "lat": 32.3668052, "state": "AL", "lng": -86.2999689}, {"county": "Morgan", "lat": 34.4240875, "state": "AL", "lng": -86.86218269999999}, {"county": "Perry", "lat": 32.598888, "state": "AL", "lng": -87.30161319999999}, {"county": "Pickens", "lat": 33.3339954, "state": "AL", "lng": -88.0900762}, {"county": "Pike", "lat": 31.8395163, "state": "AL", "lng": -86.0121573}, {"county": "Randolph", "lat": 32.8996333, "state": "AL", "lng": -86.9112451}, {"county": "Russell", "lat": 32.3552497, "state": "AL", "lng": -85.1894045}, {"county": "St. Clair", "lat": 33.6530112, "state": "AL", "lng": -86.3376761}, {"county": "Shelby", "lat": 33.1086539, "state": "AL", "lng": -86.5835907}, {"county": "Sumter", "lat": 32.6155551, "state": "AL", "lng": -88.24611829999999}, {"county": "Talladega", "lat": 33.4359416, "state": "AL", "lng": -86.1058048}, {"county": "Tallapoosa", "lat": 32.9201244, "state": "AL", "lng": -85.84862360000001}, {"county": "Tuscaloosa", "lat": 33.2098407, "state": "AL", "lng": -87.56917349999999}, {"county": "Walker", "lat": 33.8563605, "state": "AL", "lng": -87.30161319999999}, {"county": "Washington", "lat": 31.3422346, "state": "AL", "lng": -88.24611829999999}, {"county": "Wilcox", "lat": 31.5084965, "state": "AL", "lng": -86.87636189999999}, {"county": "Winston", "lat": 34.1690087, "state": "AL", "lng": -87.3413599}, {"county": "Ashley", "lat": 33.1565939, "state": "AR", "lng": -91.7538817}, {"county": "Baxter", "lat": 33.5292786, "state": "AR", "lng": -91.4970672}, {"county": "Benton", "lat": 34.5645371, "state": "AR", "lng": -92.586828}, {"county": "Boone", "lat": 36.3118662, "state": "AR", "lng": -93.0175712}, {"county": "Bradley", "lat": 33.0981881, "state": "AR", "lng": -93.6548983}, {"county": "Calhoun", "lat": 33.2195743, "state": "AR", "lng": -93.1546104}, {"county": "Carroll", "lat": 36.2987495, "state": "AR", "lng": -93.5003454}, {"county": "Chicot", "lat": 33.2056751, "state": "AR", "lng": -91.2865023}, {"county": "Clark", "lat": 34.0232374, "state": "AR", "lng": -93.17796589999999}, {"county": "Clay", "lat": 35.39674850000001, "state": "AR", "lng": -91.7862521}, {"county": "Cleburne", "lat": 35.4605769, "state": "AR", "lng": -92.0665197}, {"county": "Cleveland", "lat": 35.4214685, "state": "AR", "lng": -92.7096079}, {"county": "Columbia", "lat": 33.1285176, "state": "AR", "lng": -93.17796589999999}, {"county": "Conway", "lat": 35.0886963, "state": "AR", "lng": -92.4421011}, {"county": "Craighead", "lat": 35.8260959, "state": "AR", "lng": -90.6773046}, {"county": "Crawford", "lat": 35.5762761, "state": "AR", "lng": -94.315422}, {"county": "Crittenden", "lat": 35.3021443, "state": "AR", "lng": -90.37483540000001}, {"county": "Cross", "lat": 35.2998913, "state": "AR", "lng": -90.8294002}, {"county": "Dallas", "lat": 34.53594030000001, "state": "AR", "lng": -94.2190985}, {"county": "Desha", "lat": 35.7361886, "state": "AR", "lng": -91.67986189999999}, {"county": "Drew", "lat": 33.5156463, "state": "AR", "lng": -91.7538817}, {"county": "Faulkner", "lat": 35.1035858, "state": "AR", "lng": -92.38136209999999}, {"county": "Franklin", "lat": 36.170346, "state": "AR", "lng": -91.7759792}, {"county": "Fulton", "lat": 33.6145649, "state": "AR", "lng": -93.81351640000001}, {"county": "Garland", "lat": 33.3629029, "state": "AR", "lng": -93.70990119999999}, {"county": "Grant", "lat": 34.2628015, "state": "AR", "lng": -92.4208713}, {"county": "Greene", "lat": 36.1314931, "state": "AR", "lng": -90.563609}, {"county": "Hempstead", "lat": 33.6530112, "state": "AR", "lng": -93.66232389999999}, {"county": "Hot Spring", "lat": 34.3393795, "state": "AR", "lng": -92.97755579999999}, {"county": "Howard", "lat": 34.1318213, "state": "AR", "lng": -94.028678}, {"county": "Independence", "lat": 35.8174139, "state": "AR", "lng": -91.5983959}, {"county": "Izard", "lat": 36.1610924, "state": "AR", "lng": -91.9099238}, {"county": "Jackson", "lat": 35.6479574, "state": "AR", "lng": -91.13530200000001}, {"county": "Jefferson", "lat": 34.3806516, "state": "AR", "lng": -92.1640352}, {"county": "Johnson", "lat": 36.1328564, "state": "AR", "lng": -94.16548209999999}, {"county": "Lafayette", "lat": 33.2511695, "state": "AR", "lng": -93.62178019999999}, {"county": "Lawrence", "lat": 35.9969735, "state": "AR", "lng": -91.13530200000001}, {"county": "Lee", "lat": 28.2179994, "state": "AR", "lng": 94.7277528}, {"county": "Lincoln", "lat": 35.949526, "state": "AR", "lng": -94.4235482}, {"county": "Little River", "lat": 33.6808926, "state": "AR", "lng": -94.19234000000002}, {"county": "Logan", "lat": 36.2009127, "state": "AR", "lng": -94.38743439999999}, {"county": "Lonoke", "lat": 34.7839795, "state": "AR", "lng": -91.8998611}, {"county": "Madison", "lat": 35.0131472, "state": "AR", "lng": -90.72260969999999}, {"county": "Marion", "lat": 35.2145336, "state": "AR", "lng": -90.1964835}, {"county": "Miller", "lat": 33.3335556, "state": "AR", "lng": -93.86553029999999}, {"county": "Mississippi", "lat": 35.8279728, "state": "AR", "lng": -90.0746767}, {"county": "Monroe", "lat": 34.7348191, "state": "AR", "lng": -91.10456579999999}, {"county": "Montgomery", "lat": 34.5424074, "state": "AR", "lng": -93.66232389999999}, {"county": "Nevada", "lat": 33.6621386, "state": "AR", "lng": -93.33889169999999}, {"county": "Newton", "lat": 35.9603994, "state": "AR", "lng": -93.17796589999999}, {"county": "Ouachita", "lat": 33.5828512, "state": "AR", "lng": -92.9375739}, {"county": "Perry", "lat": 35.0475869, "state": "AR", "lng": -92.7940557}, {"county": "Phillips", "lat": 34.4611206, "state": "AR", "lng": -90.86751339999999}, {"county": "Pike", "lat": 34.1876975, "state": "AR", "lng": -93.66232389999999}, {"county": "Poinsett", "lat": 35.6078586, "state": "AR", "lng": -90.6393702}, {"county": "Polk", "lat": 34.5268097, "state": "AR", "lng": -94.15137639999999}, {"county": "Pope", "lat": 35.440627, "state": "AR", "lng": -93.0175712}, {"county": "Prairie", "lat": 34.7636336, "state": "AR", "lng": -91.5983959}, {"county": "Pulaski", "lat": 34.75386150000001, "state": "AR", "lng": -92.2236667}, {"county": "Randolph", "lat": 36.3457918, "state": "AR", "lng": -90.9820668}, {"county": "Saint Francis", "lat": 36.4533933, "state": "AR", "lng": -90.1453751}, {"county": "Saline", "lat": 33.8734364, "state": "AR", "lng": -92.2670918}, {"county": "Scott", "lat": 34.6964808, "state": "AR", "lng": -92.0962552}, {"county": "Searcy", "lat": 35.2468204, "state": "AR", "lng": -91.73368459999999}, {"county": "Sebastian", "lat": 35.2260397, "state": "AR", "lng": -94.315422}, {"county": "Sevier", "lat": 34.0346222, "state": "AR", "lng": -94.27436279999999}, {"county": "Sharp", "lat": 36.16759740000001, "state": "AR", "lng": -91.44346900000001}, {"county": "Stone", "lat": 35.8075142, "state": "AR", "lng": -92.2236667}, {"county": "Union", "lat": 33.1431092, "state": "AR", "lng": -92.539603}, {"county": "Van Buren", "lat": 35.436756, "state": "AR", "lng": -94.34826799999999}, {"county": "Washington", "lat": 33.774005, "state": "AR", "lng": -93.68267960000001}, {"county": "White", "lat": 33.0140144, "state": "AR", "lng": -91.9956868}, {"county": "Woodruff", "lat": 35.1215846, "state": "AR", "lng": -91.13530200000001}, {"county": "Yell", "lat": 35.0810824, "state": "AR", "lng": -93.33889169999999}, {"county": "Apache", "lat": 31.6906629, "state": "AZ", "lng": -109.1323499}, {"county": "Cochise", "lat": 32.1139688, "state": "AZ", "lng": -109.9211756}, {"county": "Coconino", "lat": 35.6647545, "state": "AZ", "lng": -111.4752851}, {"county": "Gila", "lat": 33.6370567, "state": "AZ", "lng": -110.5215459}, {"county": "Graham", "lat": 33.076805, "state": "AZ", "lng": -109.7591675}, {"county": "Greenlee", "lat": 33.2405598, "state": "AZ", "lng": -109.2831531}, {"county": "La Paz", "lat": 34.0061091, "state": "AZ", "lng": -113.9536466}, {"county": "Maricopa", "lat": 33.0581063, "state": "AZ", "lng": -112.0476423}, {"county": "Mohave", "lat": 35.2143346, "state": "AZ", "lng": -113.7632828}, {"county": "Navajo", "lat": 35.4019765, "state": "AZ", "lng": -110.1402594}, {"county": "Pima", "lat": 32.8961755, "state": "AZ", "lng": -109.8275815}, {"county": "Pinal", "lat": 33.37611, "state": "AZ", "lng": -110.75306}, {"county": "Santa Cruz", "lat": 33.22802, "state": "AZ", "lng": -112.173065}, {"county": "Yavapai", "lat": 34.6463981, "state": "AZ", "lng": -112.4291464}, {"county": "Yuma", "lat": 32.6926512, "state": "AZ", "lng": -114.6276916}, {"county": "Alameda", "lat": 37.7652065, "state": "CA", "lng": -122.2416355}, {"county": "Alpine", "lat": 32.8350521, "state": "CA", "lng": -116.7664109}, {"county": "Amador", "lat": 38.3488921, "state": "CA", "lng": -120.7740931}, {"county": "Butte", "lat": 49.8730193, "state": "CA", "lng": -112.7801858}, {"county": "Calaveras", "lat": 38.1960477, "state": "CA", "lng": -120.6805037}, {"county": "Colusa", "lat": 39.2143343, "state": "CA", "lng": -122.0094175}, {"county": "Contra Costa", "lat": 37.8534093, "state": "CA", "lng": -121.9017954}, {"county": "Del Norte", "lat": 41.7076287, "state": "CA", "lng": -123.9659708}, {"county": "El Dorado", "lat": 38.74263759999999, "state": "CA", "lng": -120.4357631}, {"county": "Fresno", "lat": 36.7468422, "state": "CA", "lng": -119.7725868}, {"county": "Glenn", "lat": 39.5218283, "state": "CA", "lng": -122.0138651}, {"county": "Humboldt", "lat": 40.7450055, "state": "CA", "lng": -123.8695086}, {"county": "Imperial", "lat": 32.8475528, "state": "CA", "lng": -115.5694391}, {"county": "Inyo", "lat": 36.3091865, "state": "CA", "lng": -117.5495846}, {"county": "Kern", "lat": 35.4937274, "state": "CA", "lng": -118.8596804}, {"county": "Kings", "lat": 36.0988489, "state": "CA", "lng": -119.8815203}, {"county": "Lake", "lat": 39.08396440000001, "state": "CA", "lng": -122.8084496}, {"county": "Lassen", "lat": 40.5394389, "state": "CA", "lng": -120.7120023}, {"county": "Los Angeles", "lat": 34.0522342, "state": "CA", "lng": -118.2436849}, {"county": "Madera", "lat": 36.9613356, "state": "CA", "lng": -120.0607176}, {"county": "Marin", "lat": 38.083403, "state": "CA", "lng": -122.7633036}, {"county": "Mariposa", "lat": 37.4849377, "state": "CA", "lng": -119.9662843}, {"county": "Mendocino", "lat": 39.3076744, "state": "CA", "lng": -123.7994591}, {"county": "Merced", "lat": 37.3021632, "state": "CA", "lng": -120.4829677}, {"county": "Modoc", "lat": 41.4565165, "state": "CA", "lng": -120.629366}, {"county": "Mono", "lat": 44.0033629, "state": "CA", "lng": -80.0534923}, {"county": "Monterey", "lat": 36.6002378, "state": "CA", "lng": -121.8946761}, {"county": "Napa", "lat": 38.2975381, "state": "CA", "lng": -122.286865}, {"county": "Nevada", "lat": 39.1346666, "state": "CA", "lng": -121.1710389}, {"county": "Orange", "lat": 33.7877944, "state": "CA", "lng": -117.8531119}, {"county": "Placer", "lat": 39.0915751, "state": "CA", "lng": -120.8039474}, {"county": "Plumas", "lat": 39.99268319999999, "state": "CA", "lng": -120.8039474}, {"county": "Riverside", "lat": 33.9533487, "state": "CA", "lng": -117.3961564}, {"county": "Sacramento", "lat": 38.5815719, "state": "CA", "lng": -121.4943996}, {"county": "San Benito", "lat": 36.5097219, "state": "CA", "lng": -121.080833}, {"county": "San Bernardino", "lat": 34.1083449, "state": "CA", "lng": -117.2897652}, {"county": "San Diego", "lat": 32.715738, "state": "CA", "lng": -117.1610838}, {"county": "San Francisco", "lat": 37.7749295, "state": "CA", "lng": -122.4194155}, {"county": "San Joaquin", "lat": 36.6066162, "state": "CA", "lng": -120.1890447}, {"county": "San Luis Obispo", "lat": 35.2827524, "state": "CA", "lng": -120.6596156}, {"county": "San Mateo", "lat": 37.5629917, "state": "CA", "lng": -122.3255254}, {"county": "Santa Barbara", "lat": 34.4208305, "state": "CA", "lng": -119.6981901}, {"county": "Santa Clara", "lat": 37.3541079, "state": "CA", "lng": -121.9552356}, {"county": "Santa Cruz", "lat": 36.9741171, "state": "CA", "lng": -122.0307963}, {"county": "Shasta", "lat": 40.598119, "state": "CA", "lng": -122.4907566}, {"county": "Sierra", "lat": 39.5532845, "state": "CA", "lng": -120.2512728}, {"county": "Siskiyou", "lat": 41.7743261, "state": "CA", "lng": -122.5770126}, {"county": "Solano", "lat": 38.3104969, "state": "CA", "lng": -121.9017954}, {"county": "Sonoma", "lat": 38.291859, "state": "CA", "lng": -122.4580356}, {"county": "Stanislaus", "lat": 37.5090711, "state": "CA", "lng": -120.9876321}, {"county": "Sutter", "lat": 39.1598915, "state": "CA", "lng": -121.7527482}, {"county": "Tehama", "lat": 40.0271015, "state": "CA", "lng": -122.1233228}, {"county": "Trinity", "lat": 40.6329485, "state": "CA", "lng": -123.0622553}, {"county": "Tulare", "lat": 36.2077288, "state": "CA", "lng": -119.3473379}, {"county": "Tuolumne", "lat": 37.9627027, "state": "CA", "lng": -120.2412999}, {"county": "Ventura", "lat": 34.274646, "state": "CA", "lng": -119.2290316}, {"county": "Yolo", "lat": 38.732968, "state": "CA", "lng": -121.8072828}, {"county": "Yuba", "lat": 39.2547027, "state": "CA", "lng": -121.3998995}, {"county": "Kent", "lat": 39.1440612, "state": "DE", "lng": -75.4344727}, {"county": "New Castle", "lat": 39.6620397, "state": "DE", "lng": -75.5668166}, {"county": "Sussex", "lat": 38.65308410000001, "state": "DE", "lng": -75.4344727}, {"county": "Honolulu", "lat": 21.3069444, "state": "HI", "lng": -157.8583333}, {"county": "Kauai", "lat": 21.9661076, "state": "HI", "lng": -159.5737912}, {"county": "Maui", "lat": 20.7983626, "state": "HI", "lng": -156.3319253}, {"county": "Adair", "lat": 41.50043, "state": "IA", "lng": -94.6433504}, {"county": "Adams", "lat": 41.0652066, "state": "IA", "lng": -94.6863782}, {"county": "Allamakee", "lat": 43.2430754, "state": "IA", "lng": -91.44346900000001}, {"county": "Appanoose", "lat": 40.6806102, "state": "IA", "lng": -92.8577105}, {"county": "Audubon", "lat": 41.7180421, "state": "IA", "lng": -94.93248679999999}, {"county": "Benton", "lat": 40.7033242, "state": "IA", "lng": -94.3582909}, {"county": "Black Hawk", "lat": 42.447804, "state": "IA", "lng": -92.38136209999999}, {"county": "Boone", "lat": 42.0597047, "state": "IA", "lng": -93.8802273}, {"county": "Bremer", "lat": 42.7733139, "state": "IA", "lng": -92.3949044}, {"county": "Buchanan", "lat": 41.7650194, "state": "IA", "lng": -91.24682849999999}, {"county": "Buena Vista", "lat": 42.6705452, "state": "IA", "lng": -95.1432068}, {"county": "Butler", "lat": 42.7502186, "state": "IA", "lng": -92.8577105}, {"county": "Calhoun", "lat": 41.6316573, "state": "IA", "lng": -95.8952879}, {"county": "Carroll", "lat": 42.0655986, "state": "IA", "lng": -94.86727929999999}, {"county": "Cass", "lat": 42.194721, "state": "IA", "lng": -91.34571439999999}, {"county": "Cedar", "lat": 41.2122326, "state": "IA", "lng": -92.525745}, {"county": "Cerro Gordo", "lat": 43.1543186, "state": "IA", "lng": -93.20296750000001}, {"county": "Cherokee", "lat": 42.7496413, "state": "IA", "lng": -95.55154309999999}, {"county": "Chickasaw", "lat": 43.0338635, "state": "IA", "lng": -92.495182}, {"county": "Clarke", "lat": 41.01778360000001, "state": "IA", "lng": -93.7841503}, {"county": "Clay", "lat": 43.1368038, "state": "IA", "lng": -95.1432068}, {"county": "Clayton", "lat": 42.9038759, "state": "IA", "lng": -91.1473518}, {"county": "Clinton", "lat": 41.8444735, "state": "IA", "lng": -90.1887379}, {"county": "Crawford", "lat": 42.034686, "state": "IA", "lng": -95.3102505}, {"county": "Dallas", "lat": 41.2249966, "state": "IA", "lng": -93.2413191}, {"county": "Davis", "lat": 40.6913838, "state": "IA", "lng": -92.38136209999999}, {"county": "Decatur", "lat": 40.7419443, "state": "IA", "lng": -93.83383459999999}, {"county": "Delaware", "lat": 42.4752682, "state": "IA", "lng": -91.34542139999999}, {"county": "Des Moines", "lat": 41.6005448, "state": "IA", "lng": -93.6091064}, {"county": "Dickinson", "lat": 43.4049388, "state": "IA", "lng": -95.18492189999999}, {"county": "Dubuque", "lat": 42.5005583, "state": "IA", "lng": -90.66457179999999}, {"county": "Emmet", "lat": 43.34943, "state": "IA", "lng": -94.6863782}, {"county": "Fayette", "lat": 42.84192549999999, "state": "IA", "lng": -91.8021071}, {"county": "Floyd", "lat": 43.1277502, "state": "IA", "lng": -92.7363031}, {"county": "Franklin", "lat": 42.7372361, "state": "IA", "lng": -93.33889169999999}, {"county": "Fremont", "lat": 41.2125116, "state": "IA", "lng": -92.4354648}, {"county": "Greene", "lat": 42.8958066, "state": "IA", "lng": -92.80241579999999}, {"county": "Grundy", "lat": 42.4369506, "state": "IA", "lng": -92.8577105}, {"county": "Guthrie", "lat": 41.7530909, "state": "IA", "lng": -94.479976}, {"county": "Hamilton", "lat": 41.1699246, "state": "IA", "lng": -92.90348759999999}, {"county": "Hancock", "lat": 41.3901703, "state": "IA", "lng": -95.3633591}, {"county": "Hardin", "lat": 43.0802588, "state": "IA", "lng": -91.4843083}, {"county": "Harrison", "lat": 41.6933855, "state": "IA", "lng": -95.81428849999999}, {"county": "Henry", "lat": 41.0283603, "state": "IA", "lng": -91.5983959}, {"county": "Howard", "lat": 43.3819496, "state": "IA", "lng": -92.38136209999999}, {"county": "Humboldt", "lat": 42.7208047, "state": "IA", "lng": -94.2152402}, {"county": "Ida", "lat": 42.3418685, "state": "IA", "lng": -95.4777811}, {"county": "Jackson", "lat": 42.1560699, "state": "IA", "lng": -90.52578229999999}, {"county": "Jasper", "lat": 41.6414924, "state": "IA", "lng": -93.0175712}, {"county": "Jefferson", "lat": 42.0172457, "state": "IA", "lng": -94.3774232}, {"county": "Johnson", "lat": 41.6698982, "state": "IA", "lng": -91.5983959}, {"county": "Jones", "lat": 42.1516737, "state": "IA", "lng": -91.13530200000001}, {"county": "Keokuk", "lat": 40.4044731, "state": "IA", "lng": -91.3963966}, {"county": "Kossuth", "lat": 41.0105906, "state": "IA", "lng": -91.1345917}, {"county": "Lee", "lat": 40.70686630000001, "state": "IA", "lng": -91.44346900000001}, {"county": "Linn", "lat": 42.0659844, "state": "IA", "lng": -91.67606909999999}, {"county": "Louisa", "lat": 41.19330009999999, "state": "IA", "lng": -91.28910359999999}, {"county": "Lucas", "lat": 41.0274991, "state": "IA", "lng": -93.4599348}, {"county": "Lyon", "lat": 43.3954333, "state": "IA", "lng": -96.15269850000001}, {"county": "Madison", "lat": 41.2922367, "state": "IA", "lng": -93.9878427}, {"county": "Mahaska", "lat": 41.32958800000001, "state": "IA", "lng": -92.6983868}, {"county": "Marion", "lat": 42.033279, "state": "IA", "lng": -91.5968958}, {"county": "Marshall", "lat": 42.0407088, "state": "IA", "lng": -92.9375739}, {"county": "Mills", "lat": 41.0624496, "state": "IA", "lng": -95.6457951}, {"county": "Mitchell", "lat": 43.3216363, "state": "IA", "lng": -92.86686209999999}, {"county": "Monona", "lat": 43.0516494, "state": "IA", "lng": -91.38930409999999}, {"county": "Monroe", "lat": 41.5208256, "state": "IA", "lng": -93.1038129}, {"county": "Montgomery", "lat": 43.44127410000001, "state": "IA", "lng": -95.2025451}, {"county": "Muscatine", "lat": 41.424473, "state": "IA", "lng": -91.0432051}, {"county": "O'Brien", "lat": 43.1131245, "state": "IA", "lng": -95.6457951}, {"county": "Osceola", "lat": 41.0342618, "state": "IA", "lng": -93.766759}, {"county": "Page", "lat": 40.7635099, "state": "IA", "lng": -95.1432068}, {"county": "Palo Alto", "lat": 43.1580878, "state": "IA", "lng": -94.645035}, {"county": "Plymouth", "lat": 43.2446852, "state": "IA", "lng": -93.1215924}, {"county": "Pocahontas", "lat": 42.7355299, "state": "IA", "lng": -94.66914670000001}, {"county": "Polk", "lat": 41.6278423, "state": "IA", "lng": -93.5003454}, {"county": "Pottawattamie", "lat": 41.3911501, "state": "IA", "lng": -95.4777811}, {"county": "Poweshiek", "lat": 41.6530119, "state": "IA", "lng": -92.539603}, {"county": "Ringgold", "lat": 40.7973811, "state": "IA", "lng": -94.315422}, {"county": "Sac", "lat": 42.3573517, "state": "IA", "lng": -95.1432068}, {"county": "Scott", "lat": 42.7019277, "state": "IA", "lng": -91.76544109999999}, {"county": "Shelby", "lat": 41.5161017, "state": "IA", "lng": -95.45027999999999}, {"county": "Sioux", "lat": 42.4999942, "state": "IA", "lng": -96.40030689999999}, {"county": "Story", "lat": 42.1040438, "state": "IA", "lng": -93.5003454}, {"county": "Tama", "lat": 41.9627392, "state": "IA", "lng": -92.576753}, {"county": "Taylor", "lat": 40.7846069, "state": "IA", "lng": -94.645035}, {"county": "Union", "lat": 42.2455405, "state": "IA", "lng": -93.06464679999999}, {"county": "Van Buren", "lat": 42.0844668, "state": "IA", "lng": -90.3648525}, {"county": "Wapello", "lat": 41.18141929999999, "state": "IA", "lng": -91.1854273}, {"county": "Warren", "lat": 41.30805489999999, "state": "IA", "lng": -93.5003454}, {"county": "Washington", "lat": 41.30140770000001, "state": "IA", "lng": -91.69164169999999}, {"county": "Wayne", "lat": 40.6677356, "state": "IA", "lng": -93.33889169999999}, {"county": "Webster", "lat": 41.4383427, "state": "IA", "lng": -92.1690689}, {"county": "Winnebago", "lat": 43.3481922, "state": "IA", "lng": -93.66232389999999}, {"county": "Winneshiek", "lat": 43.2362611, "state": "IA", "lng": -91.9099238}, {"county": "Woodbury", "lat": 42.3166158, "state": "IA", "lng": -95.9832577}, {"county": "Worth", "lat": 43.3580686, "state": "IA", "lng": -93.33889169999999}, {"county": "Wright", "lat": 41.2491766, "state": "IA", "lng": -92.5260229}, {"county": "Ada", "lat": 43.478767, "state": "ID", "lng": -116.2420304}, {"county": "Adams", "lat": 44.9882561, "state": "ID", "lng": -116.4916091}, {"county": "Bannock", "lat": 42.8613016, "state": "ID", "lng": -112.7227673}, {"county": "Bear Lake", "lat": 42.0299239, "state": "ID", "lng": -111.3321974}, {"county": "Benewah", "lat": 47.22768070000001, "state": "ID", "lng": -116.7843354}, {"county": "Bingham", "lat": 43.2112303, "state": "ID", "lng": -112.3624146}, {"county": "Blaine", "lat": 43.3424024, "state": "ID", "lng": -114.5956101}, {"county": "Boise", "lat": 43.6187102, "state": "ID", "lng": -116.2146068}, {"county": "Bonner", "lat": 48.2751783, "state": "ID", "lng": -116.5931483}, {"county": "Bonneville", "lat": 43.4508683, "state": "ID", "lng": -111.5455289}, {"county": "Boundary", "lat": 48.7987617, "state": "ID", "lng": -116.5627065}, {"county": "Butte", "lat": 43.6448198, "state": "ID", "lng": -113.1841378}, {"county": "Camas", "lat": 44.00740829999999, "state": "ID", "lng": -112.2210921}, {"county": "Canyon", "lat": 47.5751928, "state": "ID", "lng": -116.4126738}, {"county": "Caribou", "lat": 42.75386839999999, "state": "ID", "lng": -111.6660725}, {"county": "Cassia", "lat": 42.358036, "state": "ID", "lng": -113.5728501}, {"county": "Clark", "lat": 44.1975553, "state": "ID", "lng": -112.3755496}, {"county": "Clearwater", "lat": 46.0223931, "state": "ID", "lng": -115.8909742}, {"county": "Custer", "lat": 44.3874133, "state": "ID", "lng": -114.6959118}, {"county": "Elmore", "lat": 43.1154284, "state": "ID", "lng": -115.5264458}, {"county": "Franklin", "lat": 42.0135375, "state": "ID", "lng": -111.8071694}, {"county": "Fremont", "lat": 44.2242743, "state": "ID", "lng": -111.4790031}, {"county": "Gem", "lat": 47.5082627, "state": "ID", "lng": -115.8679385}, {"county": "Gooding", "lat": 42.9387917, "state": "ID", "lng": -114.7131081}, {"county": "Idaho County", "lat": 45.9019541, "state": "ID", "lng": -115.7237432}, {"county": "Jefferson", "lat": 43.7640903, "state": "ID", "lng": -112.2493671}, {"county": "Jerome", "lat": 42.7240732, "state": "ID", "lng": -114.5186534}, {"county": "Kootenai", "lat": 48.3102037, "state": "ID", "lng": -116.5135257}, {"county": "Latah", "lat": 46.7360364, "state": "ID", "lng": -116.6764195}, {"county": "Lemhi", "lat": 44.8515919, "state": "ID", "lng": -113.6197746}, {"county": "Lewis", "lat": 46.2664791, "state": "ID", "lng": -116.4054092}, {"county": "Lincoln", "lat": 43.5129694, "state": "ID", "lng": -111.9644136}, {"county": "Madison", "lat": 43.7508332, "state": "ID", "lng": -111.5583742}, {"county": "Minidoka", "lat": 42.7537967, "state": "ID", "lng": -113.4902829}, {"county": "Nez Perce", "lat": 46.2348914, "state": "ID", "lng": -116.2406974}, {"county": "Oneida", "lat": 42.2059769, "state": "ID", "lng": -112.5245093}, {"county": "Owyhee", "lat": 43.4182229, "state": "ID", "lng": -116.2006673}, {"county": "Payette", "lat": 44.0782195, "state": "ID", "lng": -116.9337711}, {"county": "Power", "lat": 42.7528492, "state": "ID", "lng": -112.7684521}, {"county": "Shoshone", "lat": 42.9360165, "state": "ID", "lng": -114.4058752}, {"county": "Teton", "lat": 43.886579, "state": "ID", "lng": -111.6777396}, {"county": "Twin Falls", "lat": 42.5629668, "state": "ID", "lng": -114.4608711}, {"county": "Valley", "lat": 44.9204669, "state": "ID", "lng": -115.7926381}, {"county": "Washington", "lat": 44.3658715, "state": "ID", "lng": -116.7548607}, {"county": "Adams", "lat": 39.8653244, "state": "IL", "lng": -91.1981974}, {"county": "Alexander", "lat": 39.7242387, "state": "IL", "lng": -90.0390073}, {"county": "Bond", "lat": 38.902985, "state": "IL", "lng": -89.4742177}, {"county": "Boone", "lat": 42.34849759999999, "state": "IL", "lng": -88.8263006}, {"county": "Brown", "lat": 39.9379573, "state": "IL", "lng": -90.7152749}, {"county": "Bureau", "lat": 41.2891317, "state": "IL", "lng": -89.3669118}, {"county": "Calhoun", "lat": 38.65032619999999, "state": "IL", "lng": -88.04364729999999}, {"county": "Carroll", "lat": 42.0385843, "state": "IL", "lng": -89.9626799}, {"county": "Cass", "lat": 39.9398601, "state": "IL", "lng": -90.26200419999999}, {"county": "Champaign", "lat": 40.1164204, "state": "IL", "lng": -88.2433829}, {"county": "Christian", "lat": 39.5672183, "state": "IL", "lng": -89.3226954}, {"county": "Clark", "lat": 39.3824189, "state": "IL", "lng": -87.77633329999999}, {"county": "Clay", "lat": 38.7279431, "state": "IL", "lng": -88.55653099999999}, {"county": "Clinton", "lat": 40.1536479, "state": "IL", "lng": -88.9645253}, {"county": "Coles", "lat": 39.520142, "state": "IL", "lng": -88.470497}, {"county": "Cook", "lat": 41.7376587, "state": "IL", "lng": -87.697554}, {"county": "Crawford", "lat": 39.0499568, "state": "IL", "lng": -87.77633329999999}, {"county": "Cumberland", "lat": 39.2653533, "state": "IL", "lng": -88.2071598}, {"county": "DeKalb", "lat": 41.9294736, "state": "IL", "lng": -88.75036469999999}, {"county": "DeWitt", "lat": 40.1811468, "state": "IL", "lng": -88.7861844}, {"county": "Douglas", "lat": 40.785049, "state": "IL", "lng": -90.081779}, {"county": "DuPage", "lat": 41.8243831, "state": "IL", "lng": -88.0900762}, {"county": "Edgar", "lat": 39.7555908, "state": "IL", "lng": -87.7011361}, {"county": "Edwards", "lat": 40.7455683, "state": "IL", "lng": -89.7489531}, {"county": "Effingham", "lat": 39.1200418, "state": "IL", "lng": -88.5433829}, {"county": "Fayette", "lat": 39.3200466, "state": "IL", "lng": -90.15372289999999}, {"county": "Ford", "lat": 40.4988592, "state": "IL", "lng": -88.2071598}, {"county": "Franklin", "lat": 39.6203259, "state": "IL", "lng": -90.04400009999999}, {"county": "Fulton", "lat": 41.8672508, "state": "IL", "lng": -90.1595705}, {"county": "Gallatin", "lat": 37.7107751, "state": "IL", "lng": -88.24611829999999}, {"county": "Greene", "lat": 39.4029862, "state": "IL", "lng": -90.37483540000001}, {"county": "Grundy", "lat": 41.3500531, "state": "IL", "lng": -88.4016041}, {"county": "Hamilton", "lat": 40.3964333, "state": "IL", "lng": -91.3390389}, {"county": "Hancock", "lat": 40.38493649999999, "state": "IL", "lng": -91.13530200000001}, {"county": "Hardin", "lat": 39.1567149, "state": "IL", "lng": -90.6178994}, {"county": "Henderson", "lat": 41.0250376, "state": "IL", "lng": -90.356239}, {"county": "Henry", "lat": 41.1114249, "state": "IL", "lng": -89.35647759999999}, {"county": "Iroquois", "lat": 40.8275356, "state": "IL", "lng": -87.5819743}, {"county": "Jackson", "lat": 37.7218304, "state": "IL", "lng": -89.3226954}, {"county": "Jasper", "lat": 39.0554965, "state": "IL", "lng": -88.0900762}, {"county": "Jefferson", "lat": 38.2267348, "state": "IL", "lng": -88.86469799999999}, {"county": "Jersey", "lat": 39.0704754, "state": "IL", "lng": -90.37483540000001}, {"county": "JoDaviess", "lat": 42.3148804, "state": "IL", "lng": -90.2244662}, {"county": "Johnson", "lat": 37.42037639999999, "state": "IL", "lng": -88.90306}, {"county": "Kane", "lat": 39.190047, "state": "IL", "lng": -90.35372699999999}, {"county": "Kankakee", "lat": 41.1200325, "state": "IL", "lng": -87.8611531}, {"county": "Kendall", "lat": 41.5507043, "state": "IL", "lng": -88.4403883}, {"county": "Knox", "lat": 40.9342048, "state": "IL", "lng": -90.2548467}, {"county": "Lake", "lat": 42.3689363, "state": "IL", "lng": -87.8271534}, {"county": "LaSalle", "lat": 41.3621503, "state": "IL", "lng": -89.0418249}, {"county": "Lawrence", "lat": 42.441111, "state": "IL", "lng": -88.641111}, {"county": "Lee", "lat": 41.7950293, "state": "IL", "lng": -88.9414786}, {"county": "Livingston", "lat": 38.9675463, "state": "IL", "lng": -89.76398270000001}, {"county": "Logan", "lat": 37.9594572, "state": "IL", "lng": -88.83350279999999}, {"county": "McDonough", "lat": 40.3885122, "state": "IL", "lng": -90.6773046}, {"county": "McHenry", "lat": 42.333355, "state": "IL", "lng": -88.2667534}, {"county": "McLean", "lat": 40.3144833, "state": "IL", "lng": -89.16980900000001}, {"county": "Macon", "lat": 39.7128155, "state": "IL", "lng": -88.9970218}, {"county": "Macoupin", "lat": 39.2375268, "state": "IL", "lng": -89.9253233}, {"county": "Madison", "lat": 38.6825502, "state": "IL", "lng": -90.1570536}, {"county": "Marion", "lat": 37.7306054, "state": "IL", "lng": -88.9331256}, {"county": "Marshall", "lat": 39.3914252, "state": "IL", "lng": -87.6936384}, {"county": "Mason", "lat": 38.9531001, "state": "IL", "lng": -88.6236615}, {"county": "Massac", "lat": 37.2478298, "state": "IL", "lng": -88.7493998}, {"county": "Menard", "lat": 40.0221361, "state": "IL", "lng": -89.81303559999999}, {"county": "Mercer", "lat": 41.1985037, "state": "IL", "lng": -90.6773046}, {"county": "Monroe", "lat": 38.2742526, "state": "IL", "lng": -90.1869644}, {"county": "Montgomery", "lat": 41.730585, "state": "IL", "lng": -88.3459048}, {"county": "Morgan", "lat": 39.7341219, "state": "IL", "lng": -90.2244662}, {"county": "Moultrie", "lat": 39.6020543, "state": "IL", "lng": -88.59517509999999}, {"county": "Ogle", "lat": 41.9969811, "state": "IL", "lng": -89.3226954}, {"county": "Peoria", "lat": 40.6936488, "state": "IL", "lng": -89.5889864}, {"county": "Perry", "lat": 39.7831031, "state": "IL", "lng": -90.74540619999999}, {"county": "Piatt", "lat": 40.0543526, "state": "IL", "lng": -88.55653099999999}, {"county": "Pike", "lat": 39.5662363, "state": "IL", "lng": -90.8294002}, {"county": "Pope", "lat": 37.417132, "state": "IL", "lng": -88.59517509999999}, {"county": "Pulaski", "lat": 37.2136615, "state": "IL", "lng": -89.2059111}, {"county": "Putnam", "lat": 41.1850275, "state": "IL", "lng": -89.396345}, {"county": "Randolph", "lat": 40.3761474, "state": "IL", "lng": -88.9803558}, {"county": "Richland", "lat": 39.845883, "state": "IL", "lng": -89.85816319999999}, {"county": "Rock Island", "lat": 41.5094771, "state": "IL", "lng": -90.5787476}, {"county": "St. Clair", "lat": 38.40081199999999, "state": "IL", "lng": -89.9253233}, {"county": "Saline", "lat": 37.7149675, "state": "IL", "lng": -88.55653099999999}, {"county": "Sangamon", "lat": 39.7337353, "state": "IL", "lng": -89.62516459999999}, {"county": "Schuyler", "lat": 40.1844543, "state": "IL", "lng": -90.6393702}, {"county": "Scott", "lat": 39.6094934, "state": "IL", "lng": -90.4879916}, {"county": "Shelby", "lat": 39.3980704, "state": "IL", "lng": -88.86469799999999}, {"county": "Stark", "lat": 41.0795661, "state": "IL", "lng": -89.81303559999999}, {"county": "Stephenson", "lat": 42.31448899999999, "state": "IL", "lng": -89.62516459999999}, {"county": "Tazewell", "lat": 40.5522078, "state": "IL", "lng": -89.4742177}, {"county": "Union", "lat": 42.2330782, "state": "IL", "lng": -88.5423132}, {"county": "Vermilion", "lat": 39.5811463, "state": "IL", "lng": -87.58891249999999}, {"county": "Wabash", "lat": 38.4226484, "state": "IL", "lng": -87.8156715}, {"county": "Warren", "lat": 42.4963957, "state": "IL", "lng": -89.98956810000001}, {"county": "Washington", "lat": 40.7036482, "state": "IL", "lng": -89.4073123}, {"county": "Wayne", "lat": 41.9508336, "state": "IL", "lng": -88.242369}, {"county": "White", "lat": 38.0501137, "state": "IL", "lng": -88.24611829999999}, {"county": "Whiteside", "lat": 41.7605503, "state": "IL", "lng": -89.8505012}, {"county": "Will", "lat": 41.5054724, "state": "IL", "lng": -88.0900762}, {"county": "Williamson", "lat": 38.9856018, "state": "IL", "lng": -89.7639829}, {"county": "Winnebago", "lat": 42.2661311, "state": "IL", "lng": -89.2412202}, {"county": "Woodford", "lat": 40.8467007, "state": "IL", "lng": -89.028132}, {"county": "Adams", "lat": 39.3825496, "state": "IN", "lng": -85.559973}, {"county": "Allen", "lat": 41.20004840000001, "state": "IN", "lng": -85.1958063}, {"county": "Bartholomew", "lat": 39.206801, "state": "IN", "lng": -85.8895551}, {"county": "Benton", "lat": 41.509216, "state": "IN", "lng": -85.76110159999999}, {"county": "Blackford", "lat": 40.49927840000001, "state": "IN", "lng": -85.31362179999999}, {"county": "Boone", "lat": 40.0106163, "state": "IN", "lng": -86.49965460000001}, {"county": "Brown", "lat": 39.1749729, "state": "IN", "lng": -86.17517590000001}, {"county": "Carroll", "lat": 40.542415, "state": "IN", "lng": -86.5400674}, {"county": "Cass", "lat": 39.0869874, "state": "IN", "lng": -87.27862669999999}, {"county": "Clark", "lat": 38.4492903, "state": "IN", "lng": -85.7256372}, {"county": "Clay", "lat": 39.36862199999999, "state": "IN", "lng": -87.14228949999999}, {"county": "Clinton", "lat": 39.6569817, "state": "IN", "lng": -87.3980741}, {"county": "Crawford", "lat": 38.3054548, "state": "IN", "lng": -86.4592091}, {"county": "Daviess", "lat": 38.7020241, "state": "IN", "lng": -87.14228949999999}, {"county": "Dearborn", "lat": 39.1713075, "state": "IN", "lng": -84.981754}, {"county": "Decatur", "lat": 40.830603, "state": "IN", "lng": -84.9291329}, {"county": "DeKalb", "lat": 41.4138928, "state": "IN", "lng": -85.02334599999999}, {"county": "Delaware", "lat": 39.1478313, "state": "IN", "lng": -85.2071816}, {"county": "Dubois", "lat": 38.4453945, "state": "IN", "lng": -86.8041574}, {"county": "Elkhart", "lat": 41.6819935, "state": "IN", "lng": -85.9766671}, {"county": "Fayette", "lat": 39.9311099, "state": "IN", "lng": -86.39721999999999}, {"county": "Floyd", "lat": 38.2869276, "state": "IN", "lng": -85.8895551}, {"county": "Fountain", "lat": 40.22271970000001, "state": "IN", "lng": -87.3347575}, {"county": "Franklin", "lat": 39.4806055, "state": "IN", "lng": -86.0549863}, {"county": "Fulton", "lat": 40.9472635, "state": "IN", "lng": -86.2627772}, {"county": "Gibson", "lat": 38.3338249, "state": "IN", "lng": -87.5791287}, {"county": "Grant", "lat": 40.4730605, "state": "IN", "lng": -85.684578}, {"county": "Greene", "lat": 40.4083777, "state": "IN", "lng": -85.09996939999999}, {"county": "Hamilton", "lat": 41.53366159999999, "state": "IN", "lng": -84.9127396}, {"county": "Hancock", "lat": 39.8249915, "state": "IN", "lng": -85.84862360000001}, {"county": "Harrison", "lat": 39.52861, "state": "IN", "lng": -87.42222}, {"county": "Hendricks", "lat": 39.8064942, "state": "IN", "lng": -86.5400674}, {"county": "Henry", "lat": 39.9704844, "state": "IN", "lng": -85.35496499999999}, {"county": "Howard", "lat": 39.9161499, "state": "IN", "lng": -87.37557029999999}, {"county": "Huntington", "lat": 40.8831011, "state": "IN", "lng": -85.49747599999999}, {"county": "Jackson", "lat": 38.8794321, "state": "IN", "lng": -86.05296039999999}, {"county": "Jasper", "lat": 38.3914418, "state": "IN", "lng": -86.9311094}, {"county": "Jay", "lat": 40.4465288, "state": "IN", "lng": -85.02334599999999}, {"county": "Jefferson", "lat": 40.27944, "state": "IN", "lng": -86.58999999999999}, {"county": "Jennings", "lat": 38.9914998, "state": "IN", "lng": -85.684578}, {"county": "Johnson", "lat": 39.4637793, "state": "IN", "lng": -86.1344697}, {"county": "Knox", "lat": 41.2958751, "state": "IN", "lng": -86.6250139}, {"county": "Kosciusko", "lat": 41.2864679, "state": "IN", "lng": -85.84862360000001}, {"county": "LaGrange", "lat": 41.641717, "state": "IN", "lng": -85.4166467}, {"county": "Lake", "lat": 41.4897279, "state": "IN", "lng": -87.30161319999999}, {"county": "LaPorte", "lat": 41.611143, "state": "IN", "lng": -86.7227195}, {"county": "Lawrence", "lat": 39.8386516, "state": "IN", "lng": -86.0252612}, {"county": "Madison", "lat": 38.7358933, "state": "IN", "lng": -85.37995769999999}, {"county": "Marion", "lat": 40.5583739, "state": "IN", "lng": -85.6591442}, {"county": "Marshall", "lat": 39.8480969, "state": "IN", "lng": -87.18779010000002}, {"county": "Martin", "lat": 38.6937856, "state": "IN", "lng": -86.8220341}, {"county": "Miami", "lat": 40.6140514, "state": "IN", "lng": -86.1064885}, {"county": "Monroe", "lat": 40.7450468, "state": "IN", "lng": -84.9369111}, {"county": "Montgomery", "lat": 38.66254929999999, "state": "IN", "lng": -87.0461181}, {"county": "Morgan", "lat": 39.51168089999999, "state": "IN", "lng": -86.3376761}, {"county": "Newton", "lat": 40.9703076, "state": "IN", "lng": -87.42075179999999}, {"county": "Noble", "lat": 40.4694904, "state": "IN", "lng": -84.8260749}, {"county": "Ohio", "lat": 38.8339573, "state": "IN", "lng": -97.76340189999999}, {"county": "Orange", "lat": 39.5842145, "state": "IN", "lng": -85.2991328}, {"county": "Owen", "lat": 39.3603429, "state": "IN", "lng": -86.8220341}, {"county": "Parke", "lat": 39.69929459999999, "state": "IN", "lng": -87.14228949999999}, {"county": "Perry", "lat": 38.0159043, "state": "IN", "lng": -86.6611083}, {"county": "Pike", "lat": 40.124119, "state": "IN", "lng": -86.48232999999999}, {"county": "Porter", "lat": 41.6155937, "state": "IN", "lng": -87.07419949999999}, {"county": "Posey", "lat": 38.0020359, "state": "IN", "lng": -87.89424509999999}, {"county": "Pulaski", "lat": 40.9957383, "state": "IN", "lng": -86.8220341}, {"county": "Putnam", "lat": 39.690997, "state": "IN", "lng": -86.8220341}, {"county": "Randolph", "lat": 40.2661553, "state": "IN", "lng": -84.9758004}, {"county": "Ripley", "lat": 39.0986811, "state": "IN", "lng": -85.2308414}, {"county": "Rush", "lat": 39.6481768, "state": "IN", "lng": -85.52002399999999}, {"county": "St. Joseph", "lat": 38.066082, "state": "IN", "lng": -87.64370699999999}, {"county": "Scott", "lat": 41.741055, "state": "IN", "lng": -85.555809}, {"county": "Shelby", "lat": 41.1953592, "state": "IN", "lng": -87.3479261}, {"county": "Spencer", "lat": 39.2867117, "state": "IN", "lng": -86.7625058}, {"county": "Starke", "lat": 41.2715616, "state": "IN", "lng": -86.6207943}, {"county": "Steuben", "lat": 41.6115471, "state": "IN", "lng": -84.981754}, {"county": "Sullivan", "lat": 39.0953199, "state": "IN", "lng": -87.4058525}, {"county": "Switzerland", "lat": 38.8419394, "state": "IN", "lng": -85.0649071}, {"county": "Tippecanoe", "lat": 41.2089559, "state": "IN", "lng": -86.11493580000001}, {"county": "Tipton", "lat": 40.2822598, "state": "IN", "lng": -86.04109799999999}, {"county": "Union", "lat": 38.4652211, "state": "IN", "lng": -87.4353991}, {"county": "Vanderburgh", "lat": 38.0806099, "state": "IN", "lng": -87.5791287}, {"county": "Vermillion", "lat": 39.8512139, "state": "IN", "lng": -87.48020679999999}, {"county": "Vigo", "lat": 39.286121, "state": "IN", "lng": -87.53731499999999}, {"county": "Wabash", "lat": 40.797821, "state": "IN", "lng": -85.8205411}, {"county": "Warren", "lat": 40.6828226, "state": "IN", "lng": -85.4271952}, {"county": "Warrick", "lat": 38.0736703, "state": "IN", "lng": -87.2618328}, {"county": "Washington", "lat": 38.65921520000001, "state": "IN", "lng": -87.172789}, {"county": "Wayne", "lat": 39.831882, "state": "IN", "lng": -84.981754}, {"county": "Wells", "lat": 40.7778348, "state": "IN", "lng": -85.1894045}, {"county": "White", "lat": 40.6765551, "state": "IN", "lng": -86.9824288}, {"county": "Whitley", "lat": 41.1136133, "state": "IN", "lng": -85.52002399999999}, {"county": "Allen", "lat": 38.6561191, "state": "KS", "lng": -96.1697173}, {"county": "Anderson", "lat": 38.2809328, "state": "KS", "lng": -95.3102505}, {"county": "Atchison", "lat": 39.5630521, "state": "KS", "lng": -95.12163559999999}, {"county": "Barber", "lat": 37.5678243, "state": "KS", "lng": -94.64857099999999}, {"county": "Barton", "lat": 38.3613844, "state": "KS", "lng": -98.7651482}, {"county": "Bourbon", "lat": 37.7957092, "state": "KS", "lng": -94.81059549999999}, {"county": "Brown", "lat": 39.770047, "state": "KS", "lng": -95.4777811}, {"county": "Butler", "lat": 37.8649441, "state": "KS", "lng": -96.83509989999999}, {"county": "Chase", "lat": 38.355011, "state": "KS", "lng": -98.3495111}, {"county": "Chautauqua", "lat": 37.0203354, "state": "KS", "lng": -96.17665590000001}, {"county": "Cherokee", "lat": 37.3458874, "state": "KS", "lng": -94.80885040000001}, {"county": "Cheyenne", "lat": 39.7877848, "state": "KS", "lng": -101.7979613}, {"county": "Clark", "lat": 37.3158895, "state": "KS", "lng": -99.8124935}, {"county": "Clay", "lat": 39.34791999999999, "state": "KS", "lng": -97.179026}, {"county": "Cloud", "lat": 39.4795571, "state": "KS", "lng": -97.69822719999999}, {"county": "Coffey", "lat": 38.2570639, "state": "KS", "lng": -95.81428849999999}, {"county": "Comanche", "lat": 37.1894543, "state": "KS", "lng": -99.2785583}, {"county": "Cowley", "lat": 37.2660235, "state": "KS", "lng": -96.9209135}, {"county": "Crawford", "lat": 38.514301, "state": "KS", "lng": -98.034058}, {"county": "Decatur", "lat": 39.74803680000001, "state": "KS", "lng": -100.5296115}, {"county": "Dickinson", "lat": 38.85059770000001, "state": "KS", "lng": -97.179026}, {"county": "Doniphan", "lat": 39.641667, "state": "KS", "lng": -95.080556}, {"county": "Douglas", "lat": 38.9107835, "state": "KS", "lng": -95.26844369999999}, {"county": "Edwards", "lat": 37.865958, "state": "KS", "lng": -99.2785583}, {"county": "Elk", "lat": 37.3936365, "state": "KS", "lng": -96.15269850000001}, {"county": "Ellis", "lat": 38.9380662, "state": "KS", "lng": -99.56066690000002}, {"county": "Ellsworth", "lat": 38.7305648, "state": "KS", "lng": -98.22811259999999}, {"county": "Finney", "lat": 38.0625252, "state": "KS", "lng": -100.8903099}, {"county": "Ford", "lat": 37.6361315, "state": "KS", "lng": -99.7540159}, {"county": "Franklin", "lat": 37.5244779, "state": "KS", "lng": -94.70495919999999}, {"county": "Geary", "lat": 38.9984685, "state": "KS", "lng": -96.79223549999999}, {"county": "Gove", "lat": 38.9590176, "state": "KS", "lng": -100.4877663}, {"county": "Graham", "lat": 39.3198302, "state": "KS", "lng": -99.8124935}, {"county": "Grant", "lat": 39.1186194, "state": "KS", "lng": -98.3336698}, {"county": "Gray", "lat": 38.1583499, "state": "KS", "lng": -99.6420656}, {"county": "Greeley", "lat": 38.3666861, "state": "KS", "lng": -95.12691559999999}, {"county": "Greenwood", "lat": 37.9025905, "state": "KS", "lng": -96.15269850000001}, {"county": "Hamilton", "lat": 37.9794705, "state": "KS", "lng": -96.1641647}, {"county": "Harper", "lat": 37.2866863, "state": "KS", "lng": -98.02589449999999}, {"county": "Harvey", "lat": 38.0025215, "state": "KS", "lng": -97.35165579999999}, {"county": "Haskell", "lat": 37.5588285, "state": "KS", "lng": -100.8903099}, {"county": "Hodgeman", "lat": 38.1429747, "state": "KS", "lng": -99.99122539999999}, {"county": "Jackson", "lat": 39.4241422, "state": "KS", "lng": -95.81428849999999}, {"county": "Jefferson", "lat": 39.2827652, "state": "KS", "lng": -95.3102505}, {"county": "Jewell", "lat": 39.671399, "state": "KS", "lng": -98.153661}, {"county": "Johnson", "lat": 37.5703377, "state": "KS", "lng": -101.7506777}, {"county": "Kearny", "lat": 38.0281402, "state": "KS", "lng": -101.2523792}, {"county": "Kingman", "lat": 37.6458491, "state": "KS", "lng": -98.1136734}, {"county": "Kiowa", "lat": 37.0172493, "state": "KS", "lng": -98.48535389999999}, {"county": "Labette", "lat": 37.2306195, "state": "KS", "lng": -95.18357879999999}, {"county": "Lane", "lat": 38.4397392, "state": "KS", "lng": -95.0821916}, {"county": "Leavenworth", "lat": 39.3111112, "state": "KS", "lng": -94.9224637}, {"county": "Lincoln", "lat": 39.0403293, "state": "KS", "lng": -98.14769650000001}, {"county": "Linn", "lat": 39.6800019, "state": "KS", "lng": -97.08419180000001}, {"county": "Logan", "lat": 39.6616746, "state": "KS", "lng": -99.57038539999999}, {"county": "Lyon", "lat": 38.4078037, "state": "KS", "lng": -96.15269850000001}, {"county": "McPherson", "lat": 38.3708415, "state": "KS", "lng": -97.66420869999999}, {"county": "Marion", "lat": 38.3483493, "state": "KS", "lng": -97.017245}, {"county": "Marshall", "lat": 39.717719, "state": "KS", "lng": -96.49297969999999}, {"county": "Meade", "lat": 37.2855796, "state": "KS", "lng": -100.3401456}, {"county": "Miami", "lat": 38.6381689, "state": "KS", "lng": -94.81059549999999}, {"county": "Mitchell", "lat": 38.3838988, "state": "KS", "lng": -98.09977789999999}, {"county": "Montgomery", "lat": 37.240253, "state": "KS", "lng": -95.81428849999999}, {"county": "Morris", "lat": 38.7144832, "state": "KS", "lng": -96.663812}, {"county": "Morton", "lat": 37.1333387, "state": "KS", "lng": -101.7979613}, {"county": "Nemaha", "lat": 39.7451077, "state": "KS", "lng": -95.9832577}, {"county": "Neosho", "lat": 37.6045688, "state": "KS", "lng": -95.3102505}, {"county": "Ness", "lat": 38.4769509, "state": "KS", "lng": -99.99122539999999}, {"county": "Norton", "lat": 39.8338946, "state": "KS", "lng": -99.89151129999999}, {"county": "Osage", "lat": 38.6009003, "state": "KS", "lng": -95.6457951}, {"county": "Osborne", "lat": 39.4388993, "state": "KS", "lng": -98.6947949}, {"county": "Ottawa", "lat": 38.615768, "state": "KS", "lng": -95.2686366}, {"county": "Pawnee", "lat": 38.2017581, "state": "KS", "lng": -99.2785583}, {"county": "Phillips", "lat": 39.766638, "state": "KS", "lng": -99.3673084}, {"county": "Pottawatomie", "lat": 39.3976344, "state": "KS", "lng": -96.3226072}, {"county": "Pratt", "lat": 37.6439071, "state": "KS", "lng": -98.73759109999999}, {"county": "Rawlins", "lat": 39.8600904, "state": "KS", "lng": -101.0711758}, {"county": "Reno", "lat": 39.05111309999999, "state": "KS", "lng": -95.11996979999999}, {"county": "Republic", "lat": 39.9236213, "state": "KS", "lng": -97.82170959999999}, {"county": "Rice", "lat": 39.5722226, "state": "KS", "lng": -97.5555928}, {"county": "Riley", "lat": 39.29888529999999, "state": "KS", "lng": -96.8308436}, {"county": "Rooks", "lat": 39.3638509, "state": "KS", "lng": -99.2785583}, {"county": "Rush", "lat": 38.5358968, "state": "KS", "lng": -99.2785583}, {"county": "Russell", "lat": 38.8952893, "state": "KS", "lng": -98.8598061}, {"county": "Saline", "lat": 38.8174853, "state": "KS", "lng": -97.69822719999999}, {"county": "Scott", "lat": 38.562531, "state": "KS", "lng": -100.8903099}, {"county": "Sedgwick", "lat": 37.9166784, "state": "KS", "lng": -97.422541}, {"county": "Seward", "lat": 38.1777913, "state": "KS", "lng": -98.7948107}, {"county": "Shawnee", "lat": 39.02284849999999, "state": "KS", "lng": -94.7151865}, {"county": "Sheridan", "lat": 39.3470831, "state": "KS", "lng": -100.439656}, {"county": "Sherman", "lat": 39.29821889999999, "state": "KS", "lng": -101.7979613}, {"county": "Smith", "lat": 39.7333849, "state": "KS", "lng": -98.7481167}, {"county": "Stafford", "lat": 37.9622371, "state": "KS", "lng": -98.60063749999999}, {"county": "Stanton", "lat": 38.5433469, "state": "KS", "lng": -95.05441259999999}, {"county": "Stevens", "lat": 37.186894, "state": "KS", "lng": -101.2523792}, {"county": "Sumner", "lat": 37.2236052, "state": "KS", "lng": -97.6114217}, {"county": "Thomas", "lat": 39.3702882, "state": "KS", "lng": -101.0711758}, {"county": "Trego", "lat": 38.9900316, "state": "KS", "lng": -99.8124935}, {"county": "Wabaunsee", "lat": 39.1461086, "state": "KS", "lng": -96.346109}, {"county": "Wallace", "lat": 38.9113982, "state": "KS", "lng": -101.5915562}, {"county": "Washington", "lat": 39.8180592, "state": "KS", "lng": -97.0508605}, {"county": "Wichita", "lat": 37.68717609999999, "state": "KS", "lng": -97.33005299999999}, {"county": "Wilson", "lat": 38.8250106, "state": "KS", "lng": -98.4753437}, {"county": "Woodson", "lat": 37.9197853, "state": "KS", "lng": -95.81428849999999}, {"county": "Wyandotte", "lat": 39.0986811, "state": "KS", "lng": -94.7691586}, {"county": "Adair", "lat": 37.9506102, "state": "KY", "lng": -86.82665689999999}, {"county": "Allen", "lat": 37.6100457, "state": "KY", "lng": -82.7279705}, {"county": "Anderson", "lat": 37.0180991, "state": "KY", "lng": -86.7997175}, {"county": "Ballard", "lat": 37.0359869, "state": "KY", "lng": -89.0179332}, {"county": "Barren", "lat": 36.9676836, "state": "KY", "lng": -85.84862360000001}, {"county": "Bath", "lat": 37.24259960000001, "state": "KY", "lng": -82.9112719}, {"county": "Bell", "lat": 36.741122, "state": "KY", "lng": -83.63484299999999}, {"county": "Boone", "lat": 38.9940572, "state": "KY", "lng": -84.7315563}, {"county": "Bourbon", "lat": 38.2170752, "state": "KY", "lng": -84.2278796}, {"county": "Boyd", "lat": 38.3833265, "state": "KY", "lng": -82.6915429}, {"county": "Boyle", "lat": 37.6526034, "state": "KY", "lng": -84.8150781}, {"county": "Bracken", "lat": 38.7117016, "state": "KY", "lng": -84.05902900000001}, {"county": "Breathitt", "lat": 37.5359616, "state": "KY", "lng": -83.33618799999999}, {"county": "Breckinridge", "lat": 37.7982002, "state": "KY", "lng": -86.4592091}, {"county": "Bullitt", "lat": 37.9842107, "state": "KY", "lng": -85.684578}, {"county": "Butler", "lat": 38.7864569, "state": "KY", "lng": -84.36965939999999}, {"county": "Caldwell", "lat": 37.1501019, "state": "KY", "lng": -87.89424509999999}, {"county": "Calloway", "lat": 36.6402766, "state": "KY", "lng": -88.28504199999999}, {"county": "Campbell", "lat": 38.8951891, "state": "KY", "lng": -84.3962535}, {"county": "Carlisle", "lat": 38.3120197, "state": "KY", "lng": -84.027427}, {"county": "Carroll", "lat": 38.6748355, "state": "KY", "lng": -85.0649071}, {"county": "Carter", "lat": 38.4289683, "state": "KY", "lng": -83.1207313}, {"county": "Casey", "lat": 37.3157449, "state": "KY", "lng": -84.8984775}, {"county": "Christian", "lat": 36.8410586, "state": "KY", "lng": -87.460397}, {"county": "Clark", "lat": 37.959945, "state": "KY", "lng": -84.14351359999999}, {"county": "Clay", "lat": 37.4767119, "state": "KY", "lng": -87.8200159}, {"county": "Clinton", "lat": 36.6672813, "state": "KY", "lng": -88.9933965}, {"county": "Crittenden", "lat": 38.7828437, "state": "KY", "lng": -84.6052206}, {"county": "Cumberland", "lat": 36.9781475, "state": "KY", "lng": -82.9884955}, {"county": "Daviess", "lat": 37.7307984, "state": "KY", "lng": -87.10237459999999}, {"county": "Edmonson", "lat": 37.1941682, "state": "KY", "lng": -86.21584969999999}, {"county": "Elliott", "lat": 38.1575088, "state": "KY", "lng": -83.12200740000002}, {"county": "Estill", "lat": 37.4570438, "state": "KY", "lng": -82.8187717}, {"county": "Fayette", "lat": 38.06064780000001, "state": "KY", "lng": -84.4802606}, {"county": "Fleming", "lat": 38.3987633, "state": "KY", "lng": -83.67739279999999}, {"county": "Floyd", "lat": 37.5455463, "state": "KY", "lng": -82.7778579}, {"county": "Franklin", "lat": 36.722263, "state": "KY", "lng": -86.57721769999999}, {"county": "Fulton", "lat": 36.5042277, "state": "KY", "lng": -88.8742259}, {"county": "Gallatin", "lat": 38.7295069, "state": "KY", "lng": -84.87763919999999}, {"county": "Garrard", "lat": 37.1237006, "state": "KY", "lng": -83.746308}, {"county": "Grant", "lat": 38.6565245, "state": "KY", "lng": -84.6479124}, {"county": "Graves", "lat": 36.6887728, "state": "KY", "lng": -88.7108964}, {"county": "Grayson", "lat": 38.3325812, "state": "KY", "lng": -82.9485023}, {"county": "Green", "lat": 37.2570117, "state": "KY", "lng": -85.56121}, {"county": "Greenup", "lat": 38.5731349, "state": "KY", "lng": -82.83016769999999}, {"county": "Hancock", "lat": 37.8280909, "state": "KY", "lng": -86.761749}, {"county": "Hardin", "lat": 36.7647773, "state": "KY", "lng": -88.2953134}, {"county": "Harlan", "lat": 36.8431441, "state": "KY", "lng": -83.321848}, {"county": "Harrison", "lat": 38.4333045, "state": "KY", "lng": -84.3542049}, {"county": "Hart", "lat": 37.3101304, "state": "KY", "lng": -85.84862360000001}, {"county": "Henderson", "lat": 37.8361538, "state": "KY", "lng": -87.59001339999999}, {"county": "Henry", "lat": 38.4268385, "state": "KY", "lng": -85.14793639999999}, {"county": "Hickman", "lat": 36.5711721, "state": "KY", "lng": -89.18617909999999}, {"county": "Hopkins", "lat": 37.3153093, "state": "KY", "lng": -87.5791287}, {"county": "Jackson", "lat": 37.5531457, "state": "KY", "lng": -83.38351349999999}, {"county": "Jefferson", "lat": 38.1938097, "state": "KY", "lng": -85.64348700000001}, {"county": "Jessamine", "lat": 37.895573, "state": "KY", "lng": -84.56414699999999}, {"county": "Johnson", "lat": 37.8048335, "state": "KY", "lng": -82.8640623}, {"county": "Kenton", "lat": 38.8683985, "state": "KY", "lng": -84.45605069999999}, {"county": "Knott", "lat": 37.3461117, "state": "KY", "lng": -82.99316069999999}, {"county": "Knox", "lat": 36.9260578, "state": "KY", "lng": -83.8897057}, {"county": "LaRue", "lat": 37.5189552, "state": "KY", "lng": -85.7256372}, {"county": "Laurel", "lat": 37.0693489, "state": "KY", "lng": -84.1857115}, {"county": "Lawrence", "lat": 38.05267500000001, "state": "KY", "lng": -82.7778579}, {"county": "Lee", "lat": 37.599443, "state": "KY", "lng": -83.7199136}, {"county": "Leslie", "lat": 37.0698286, "state": "KY", "lng": -83.3789389}, {"county": "Letcher", "lat": 37.1450963, "state": "KY", "lng": -82.9590507}, {"county": "Lewis", "lat": 38.5079686, "state": "KY", "lng": -83.3789389}, {"county": "Lincoln", "lat": 37.4751264, "state": "KY", "lng": -84.6479124}, {"county": "Livingston", "lat": 37.2978634, "state": "KY", "lng": -84.2149339}, {"county": "Logan", "lat": 36.869834, "state": "KY", "lng": -86.86218269999999}, {"county": "Lyon", "lat": 37.0247261, "state": "KY", "lng": -88.0900762}, {"county": "McCracken", "lat": 37.03306070000001, "state": "KY", "lng": -88.7108964}, {"county": "McCreary", "lat": 36.6973499, "state": "KY", "lng": -84.4802606}, {"county": "McLean", "lat": 37.5644352, "state": "KY", "lng": -87.2618328}, {"county": "Madison", "lat": 37.7143001, "state": "KY", "lng": -84.3121264}, {"county": "Magoffin", "lat": 37.730555, "state": "KY", "lng": -83.03613759999999}, {"county": "Marion", "lat": 37.3328286, "state": "KY", "lng": -88.0811349}, {"county": "Marshall", "lat": 36.8573767, "state": "KY", "lng": -88.4016041}, {"county": "Martin", "lat": 37.5728764, "state": "KY", "lng": -82.752659}, {"county": "Mason", "lat": 38.5761806, "state": "KY", "lng": -84.5852209}, {"county": "Meade", "lat": 37.9601502, "state": "KY", "lng": -86.21584969999999}, {"county": "Menifee", "lat": 37.9335368, "state": "KY", "lng": -83.63484299999999}, {"county": "Mercer", "lat": 37.8258603, "state": "KY", "lng": -84.8984775}, {"county": "Metcalfe", "lat": 37.0032438, "state": "KY", "lng": -85.64348700000001}, {"county": "Monroe", "lat": 36.7484915, "state": "KY", "lng": -85.7256372}, {"county": "Montgomery", "lat": 38.0314578, "state": "KY", "lng": -83.8897057}, {"county": "Morgan", "lat": 38.6028489, "state": "KY", "lng": -84.3988272}, {"county": "Muhlenberg", "lat": 37.17725009999999, "state": "KY", "lng": -87.14228949999999}, {"county": "Nelson", "lat": 37.7647455, "state": "KY", "lng": -85.47880649999999}, {"county": "Nicholas", "lat": 38.37676250000001, "state": "KY", "lng": -84.05902900000001}, {"county": "Ohio", "lat": 37.5108523, "state": "KY", "lng": -86.8220341}, {"county": "Oldham", "lat": 38.3560025, "state": "KY", "lng": -85.47880649999999}, {"county": "Owen", "lat": 38.5048121, "state": "KY", "lng": -84.6021872}, {"county": "Owsley", "lat": 37.4294933, "state": "KY", "lng": -83.7199136}, {"county": "Pendleton", "lat": 38.4622879, "state": "KY", "lng": -85.3035678}, {"county": "Perry", "lat": 37.3160706, "state": "KY", "lng": -83.2077645}, {"county": "Pike", "lat": 37.4842087, "state": "KY", "lng": -82.4752757}, {"county": "Powell", "lat": 37.8380647, "state": "KY", "lng": -83.8260884}, {"county": "Pulaski", "lat": 37.2089669, "state": "KY", "lng": -84.6388326}, {"county": "Robertson", "lat": 38.5224338, "state": "KY", "lng": -84.0378894}, {"county": "Rockcastle", "lat": 36.89977409999999, "state": "KY", "lng": -87.9872444}, {"county": "Rowan", "lat": 38.177068, "state": "KY", "lng": -83.46435509999999}, {"county": "Russell", "lat": 38.5173028, "state": "KY", "lng": -82.6976631}, {"county": "Scott", "lat": 38.3172361, "state": "KY", "lng": -84.56414699999999}, {"county": "Shelby", "lat": 38.1778076, "state": "KY", "lng": -85.2308414}, {"county": "Simpson", "lat": 36.7772014, "state": "KY", "lng": -86.6207943}, {"county": "Spencer", "lat": 38.0123167, "state": "KY", "lng": -85.31362179999999}, {"county": "Taylor", "lat": 37.332884, "state": "KY", "lng": -85.31362179999999}, {"county": "Todd", "lat": 36.8338638, "state": "KY", "lng": -87.14228949999999}, {"county": "Trigg", "lat": 36.8473642, "state": "KY", "lng": -87.77633329999999}, {"county": "Trimble", "lat": 37.0120194, "state": "KY", "lng": -84.73577630000001}, {"county": "Union", "lat": 38.9458951, "state": "KY", "lng": -84.68050099999999}, {"county": "Warren", "lat": 36.9886043, "state": "KY", "lng": -86.49965460000001}, {"county": "Washington", "lat": 37.7516142, "state": "KY", "lng": -85.14793639999999}, {"county": "Wayne", "lat": 36.7571907, "state": "KY", "lng": -84.8567932}, {"county": "Webster", "lat": 37.88895300000001, "state": "KY", "lng": -86.3388635}, {"county": "Whitley", "lat": 36.726335, "state": "KY", "lng": -84.1857115}, {"county": "Wolfe", "lat": 37.75508689999999, "state": "KY", "lng": -83.46435509999999}, {"county": "Woodford", "lat": 38.0721662, "state": "KY", "lng": -84.7315563}, {"county": "Acadia", "lat": 29.7688198, "state": "LA", "lng": -90.8014815}, {"county": "Allen", "lat": 31.835278, "state": "LA", "lng": -93.288333}, {"county": "Ascension", "lat": 30.2017295, "state": "LA", "lng": -90.9438468}, {"county": "Assumption", "lat": 29.9232544, "state": "LA", "lng": -91.09693999999999}, {"county": "Avoyelles", "lat": 30.9711824, "state": "LA", "lng": -92.0665197}, {"county": "Beauregard", "lat": 30.7611484, "state": "LA", "lng": -93.33889169999999}, {"county": "Bienville", "lat": 32.3568222, "state": "LA", "lng": -92.98043740000001}, {"county": "Bossier", "lat": 32.7551322, "state": "LA", "lng": -93.66232389999999}, {"county": "Caddo", "lat": 32.7565316, "state": "LA", "lng": -93.9737925}, {"county": "Calcasieu", "lat": 31.0896313, "state": "LA", "lng": -92.7115348}, {"county": "Caldwell", "lat": 32.0669717, "state": "LA", "lng": -92.0665197}, {"county": "Cameron", "lat": 29.79772119999999, "state": "LA", "lng": -93.3251535}, {"county": "Catahoula", "lat": 30.214444, "state": "LA", "lng": -91.708889}, {"county": "Claiborne", "lat": 32.5159779, "state": "LA", "lng": -92.1918032}, {"county": "Concordia", "lat": 31.4808983, "state": "LA", "lng": -91.63721500000001}, {"county": "DeSoto", "lat": 32.5438609, "state": "LA", "lng": -93.0557774}, {"county": "East Baton Rouge", "lat": 30.5693593, "state": "LA", "lng": -91.09693999999999}, {"county": "East Carroll", "lat": 32.7570923, "state": "LA", "lng": -91.2506002}, {"county": "East Feliciana", "lat": 30.8458948, "state": "LA", "lng": -91.02032240000001}, {"county": "Evangeline", "lat": 30.2577813, "state": "LA", "lng": -92.58427700000001}, {"county": "Franklin", "lat": 29.7960399, "state": "LA", "lng": -91.5015002}, {"county": "Grant", "lat": 30.7885279, "state": "LA", "lng": -92.9484868}, {"county": "Iberia", "lat": 29.9306724, "state": "LA", "lng": -91.60769599999999}, {"county": "Iberville", "lat": 30.2899179, "state": "LA", "lng": -91.4048249}, {"county": "Jackson", "lat": 30.8374036, "state": "LA", "lng": -91.2176087}, {"county": "Jefferson", "lat": 29.96603709999999, "state": "LA", "lng": -90.1531298}, {"county": "Jeff Davis", "lat": 30.2672346, "state": "LA", "lng": -92.8178291}, {"county": "Lafayette", "lat": 30.2240897, "state": "LA", "lng": -92.0198427}, {"county": "Lafourche", "lat": 29.6952295, "state": "LA", "lng": -90.52578229999999}, {"county": "LaSalle", "lat": 29.955647, "state": "LA", "lng": -92.0323739}, {"county": "Lincoln", "lat": 33.7809383, "state": "LA", "lng": -118.1751669}, {"county": "Livingston", "lat": 30.5021345, "state": "LA", "lng": -90.7478737}, {"county": "Madison", "lat": 32.4401578, "state": "LA", "lng": -91.28910359999999}, {"county": "Morehouse", "lat": 32.796224, "state": "LA", "lng": -91.7538817}, {"county": "Natchitoches", "lat": 31.7607195, "state": "LA", "lng": -93.08627489999999}, {"county": "Orleans", "lat": 30.1126874, "state": "LA", "lng": -89.8879304}, {"county": "Ouachita", "lat": 32.4271852, "state": "LA", "lng": -92.2236667}, {"county": "Plaquemines", "lat": 29.3240045, "state": "LA", "lng": -89.4742177}, {"county": "Pointe Coupee", "lat": 30.6102166, "state": "LA", "lng": -91.5983959}, {"county": "Rapides", "lat": 31.3635131, "state": "LA", "lng": -92.58680950000002}, {"county": "Red River", "lat": 32.0842949, "state": "LA", "lng": -93.3792057}, {"county": "Richland", "lat": 32.3887281, "state": "LA", "lng": -91.7928402}, {"county": "Sabine", "lat": 30.5639831, "state": "LA", "lng": -93.65090049999999}, {"county": "St. Bernard", "lat": 29.8673144, "state": "LA", "lng": -89.858902}, {"county": "St. Charles", "lat": 29.7532654, "state": "LA", "lng": -90.72092359999999}, {"county": "St. Helena", "lat": 30.8021866, "state": "LA", "lng": -90.6773046}, {"county": "St. James", "lat": 29.9828316, "state": "LA", "lng": -90.83087119999999}, {"county": "St. John the Baptist", "lat": 30.1118331, "state": "LA", "lng": -90.4879916}, {"county": "St. Landry", "lat": 30.8443611, "state": "LA", "lng": -92.2579049}, {"county": "St. Martin", "lat": 30.2395901, "state": "LA", "lng": -91.7538817}, {"county": "St. Mary", "lat": 29.502976, "state": "LA", "lng": -91.44346900000001}, {"county": "St. Tammany", "lat": 30.4357418, "state": "LA", "lng": -89.9253233}, {"county": "Tangipahoa", "lat": 30.8760151, "state": "LA", "lng": -90.5120391}, {"county": "Tensas", "lat": 32.077218, "state": "LA", "lng": -91.28910359999999}, {"county": "Terrebonne", "lat": 29.2299682, "state": "LA", "lng": -90.7532809}, {"county": "Union", "lat": 30.091512, "state": "LA", "lng": -90.900064}, {"county": "Vermilion", "lat": 29.8601413, "state": "LA", "lng": -92.38136209999999}, {"county": "Vernon", "lat": 32.3887633, "state": "LA", "lng": -92.5715364}, {"county": "Washington", "lat": 30.6163073, "state": "LA", "lng": -92.057063}, {"county": "Webster", "lat": 32.7641355, "state": "LA", "lng": -93.33889169999999}, {"county": "West Baton Rouge", "lat": 30.4751202, "state": "LA", "lng": -91.3276422}, {"county": "West Carroll", "lat": 32.7545792, "state": "LA", "lng": -91.4821482}, {"county": "West Feliciana", "lat": 30.8423123, "state": "LA", "lng": -91.4048249}, {"county": "Winn", "lat": 31.91961239999999, "state": "LA", "lng": -92.6586401}, {"county": "Abington", "lat": 42.1048228, "state": "MA", "lng": -70.9453218}, {"county": "Acton", "lat": 42.4850931, "state": "MA", "lng": -71.43284}, {"county": "Acushnet", "lat": 41.7223696, "state": "MA", "lng": -70.89523369999999}, {"county": "Adams", "lat": 42.6242251, "state": "MA", "lng": -73.1174344}, {"county": "Agawam", "lat": 42.0695391, "state": "MA", "lng": -72.61481169999999}, {"county": "Alford", "lat": 42.2356442, "state": "MA", "lng": -73.4134456}, {"county": "Amesbury", "lat": 42.85839250000001, "state": "MA", "lng": -70.93003759999999}, {"county": "Amherst", "lat": 42.3732216, "state": "MA", "lng": -72.5198537}, {"county": "Andover", "lat": 42.6583356, "state": "MA", "lng": -71.1367953}, {"county": "Aquinnah", "lat": 41.3352369, "state": "MA", "lng": -70.80078639999999}, {"county": "Arlington", "lat": 42.4153925, "state": "MA", "lng": -71.1564729}, {"county": "Ashburnham", "lat": 42.635545, "state": "MA", "lng": -71.90973939999999}, {"county": "Ashby", "lat": 42.6772767, "state": "MA", "lng": -71.81871389999999}, {"county": "Ashfield", "lat": 42.5264745, "state": "MA", "lng": -72.788426}, {"county": "Ashland", "lat": 42.2612067, "state": "MA", "lng": -71.4633956}, {"county": "Athol", "lat": 42.59593290000001, "state": "MA", "lng": -72.2267383}, {"county": "Attleboro", "lat": 41.94454409999999, "state": "MA", "lng": -71.2856082}, {"county": "Auburn", "lat": 42.1945385, "state": "MA", "lng": -71.8356271}, {"county": "Avon", "lat": 42.13065539999999, "state": "MA", "lng": -71.0411582}, {"county": "Ayer", "lat": 42.5611947, "state": "MA", "lng": -71.58990539999999}, {"county": "Barnstable", "lat": 41.7003208, "state": "MA", "lng": -70.3002024}, {"county": "Barre", "lat": 42.4229047, "state": "MA", "lng": -72.10510020000001}, {"county": "Becket", "lat": 42.3319904, "state": "MA", "lng": -73.0829366}, {"county": "Bedford", "lat": 42.4906231, "state": "MA", "lng": -71.2760089}, {"county": "Belchertown", "lat": 42.2770346, "state": "MA", "lng": -72.4008884}, {"county": "Bellingham", "lat": 42.0867608, "state": "MA", "lng": -71.47458809999999}, {"county": "Belmont", "lat": 42.3956405, "state": "MA", "lng": -71.1776114}, {"county": "Berkley", "lat": 41.8459347, "state": "MA", "lng": -71.08282220000001}, {"county": "Berlin", "lat": 42.3812039, "state": "MA", "lng": -71.63701209999999}, {"county": "Bernardston", "lat": 42.6710048, "state": "MA", "lng": -72.5483277}, {"county": "Beverly", "lat": 42.5584283, "state": "MA", "lng": -70.880049}, {"county": "Billerica", "lat": 42.5584218, "state": "MA", "lng": -71.2689461}, {"county": "Blackstone", "lat": 42.0418415, "state": "MA", "lng": -71.53678599999999}, {"county": "Blandford", "lat": 42.1806463, "state": "MA", "lng": -72.9273224}, {"county": "Bolton", "lat": 42.43342579999999, "state": "MA", "lng": -71.6078449}, {"county": "Boston", "lat": 42.3600825, "state": "MA", "lng": -71.0588801}, {"county": "Bourne", "lat": 41.74127730000001, "state": "MA", "lng": -70.5989325}, {"county": "Boxborough", "lat": 42.4834197, "state": "MA", "lng": -71.5167139}, {"county": "Boxford", "lat": 42.6611604, "state": "MA", "lng": -70.996726}, {"county": "Boylston", "lat": 42.3889953, "state": "MA", "lng": -71.69081419999999}, {"county": "Braintree", "lat": 42.2079017, "state": "MA", "lng": -71.0040013}, {"county": "Brewster", "lat": 41.7600902, "state": "MA", "lng": -70.0827905}, {"county": "Bridgewater", "lat": 41.9903519, "state": "MA", "lng": -70.9750541}, {"county": "Brimfield", "lat": 42.1225482, "state": "MA", "lng": -72.2005059}, {"county": "Brockton", "lat": 42.0834335, "state": "MA", "lng": -71.0183787}, {"county": "Brookfield", "lat": 42.2139817, "state": "MA", "lng": -72.1022991}, {"county": "Brookline", "lat": 42.33176419999999, "state": "MA", "lng": -71.1211635}, {"county": "Buckland", "lat": 42.592307, "state": "MA", "lng": -72.79176009999999}, {"county": "Burlington", "lat": 42.5047161, "state": "MA", "lng": -71.1956205}, {"county": "Cambridge", "lat": 42.3736158, "state": "MA", "lng": -71.10973349999999}, {"county": "Canton", "lat": 42.1584324, "state": "MA", "lng": -71.1447732}, {"county": "Carlisle", "lat": 42.5292597, "state": "MA", "lng": -71.3495046}, {"county": "Carver", "lat": 41.8834363, "state": "MA", "lng": -70.7625376}, {"county": "Charlemont", "lat": 42.627862, "state": "MA", "lng": -72.86981829999999}, {"county": "Charlton", "lat": 42.13565, "state": "MA", "lng": -71.970074}, {"county": "Chatham", "lat": 41.6820897, "state": "MA", "lng": -69.95976639999999}, {"county": "Chelmsford", "lat": 42.5998139, "state": "MA", "lng": -71.3672838}, {"county": "Chelsea", "lat": 42.3917638, "state": "MA", "lng": -71.0328284}, {"county": "Cheshire", "lat": 42.5620278, "state": "MA", "lng": -73.162881}, {"county": "Chester", "lat": 42.2792551, "state": "MA", "lng": -72.978712}, {"county": "Chesterfield", "lat": 42.3917541, "state": "MA", "lng": -72.8398172}, {"county": "Chicopee", "lat": 42.1487043, "state": "MA", "lng": -72.6078672}, {"county": "Chilmark", "lat": 41.3431688, "state": "MA", "lng": -70.74475009999999}, {"county": "Clarksburg", "lat": 42.7170314, "state": "MA", "lng": -73.092685}, {"county": "Clinton", "lat": 42.41676349999999, "state": "MA", "lng": -71.68290809999999}, {"county": "Cohasset", "lat": 42.24176749999999, "state": "MA", "lng": -70.8036544}, {"county": "Colrain", "lat": 42.6731396, "state": "MA", "lng": -72.6967587}, {"county": "Concord", "lat": 42.4603719, "state": "MA", "lng": -71.3489484}, {"county": "Conway", "lat": 42.5098085, "state": "MA", "lng": -72.6995349}, {"county": "Cummington", "lat": 42.459188, "state": "MA", "lng": -72.8913714}, {"county": "Dalton", "lat": 42.4736959, "state": "MA", "lng": -73.1662138}, {"county": "Danvers", "lat": 42.5750009, "state": "MA", "lng": -70.93212199999999}, {"county": "Dartmouth", "lat": 41.6130323, "state": "MA", "lng": -70.9704787}, {"county": "Dedham", "lat": 42.2436085, "state": "MA", "lng": -71.1676536}, {"county": "Deerfield", "lat": 42.5445588, "state": "MA", "lng": -72.6056435}, {"county": "Dennis", "lat": 41.7353062, "state": "MA", "lng": -70.1939429}, {"county": "Dighton", "lat": 41.84385899999999, "state": "MA", "lng": -71.15673439999999}, {"county": "Douglas", "lat": 42.0543449, "state": "MA", "lng": -71.739379}, {"county": "Dover", "lat": 42.2458749, "state": "MA", "lng": -71.2828719}, {"county": "Dracut", "lat": 42.6703687, "state": "MA", "lng": -71.3020052}, {"county": "Dudley", "lat": 42.0433661, "state": "MA", "lng": -71.9276033}, {"county": "Dunstable", "lat": 42.67508979999999, "state": "MA", "lng": -71.4828433}, {"county": "Duxbury", "lat": 42.0417525, "state": "MA", "lng": -70.6722767}, {"county": "East Bridgewater", "lat": 42.0334341, "state": "MA", "lng": -70.9592096}, {"county": "East Brookfield", "lat": 42.2266927, "state": "MA", "lng": -72.046446}, {"county": "Eastham", "lat": 41.8299634, "state": "MA", "lng": -69.97403609999999}, {"county": "Easthampton", "lat": 42.266757, "state": "MA", "lng": -72.66897999999999}, {"county": "East Longmeadow", "lat": 42.0645396, "state": "MA", "lng": -72.5125863}, {"county": "Easton", "lat": 42.0245442, "state": "MA", "lng": -71.1286594}, {"county": "Edgartown", "lat": 41.3890052, "state": "MA", "lng": -70.5133599}, {"county": "Egremont", "lat": 42.1777247, "state": "MA", "lng": -73.4415929}, {"county": "Erving", "lat": 42.6000863, "state": "MA", "lng": -72.3981416}, {"county": "Essex", "lat": 42.63195820000001, "state": "MA", "lng": -70.7829315}, {"county": "Everett", "lat": 42.40843, "state": "MA", "lng": -71.0536625}, {"county": "Fairhaven", "lat": 41.6376043, "state": "MA", "lng": -70.90364869999999}, {"county": "Fall River", "lat": 41.7014912, "state": "MA", "lng": -71.1550451}, {"county": "Falmouth", "lat": 41.5532208, "state": "MA", "lng": -70.60858859999999}, {"county": "Fitchburg", "lat": 42.5834228, "state": "MA", "lng": -71.8022955}, {"county": "Florida", "lat": 42.66675, "state": "MA", "lng": -73.01121169999999}, {"county": "Foxborough", "lat": 42.0653768, "state": "MA", "lng": -71.2478308}, {"county": "Framingham", "lat": 42.279286, "state": "MA", "lng": -71.4161565}, {"county": "Franklin", "lat": 42.0834313, "state": "MA", "lng": -71.396725}, {"county": "Freetown", "lat": 41.7619708, "state": "MA", "lng": -71.014118}, {"county": "Gardner", "lat": 42.5750883, "state": "MA", "lng": -71.998133}, {"county": "Georgetown", "lat": 42.7250918, "state": "MA", "lng": -70.99116590000001}, {"county": "Gill", "lat": 42.6408105, "state": "MA", "lng": -72.4996367}, {"county": "Gloucester", "lat": 42.6159285, "state": "MA", "lng": -70.6619888}, {"county": "Goshen", "lat": 42.4407187, "state": "MA", "lng": -72.7993986}, {"county": "Gosnold", "lat": 41.4521063, "state": "MA", "lng": -70.83577919999999}, {"county": "Grafton", "lat": 42.2070391, "state": "MA", "lng": -71.6856236}, {"county": "Granby", "lat": 42.2570866, "state": "MA", "lng": -72.51688589999999}, {"county": "Granville", "lat": 42.09965450000001, "state": "MA", "lng": -72.92243289999999}, {"county": "Great Barrington", "lat": 42.1959798, "state": "MA", "lng": -73.362008}, {"county": "Greenfield", "lat": 42.587915, "state": "MA", "lng": -72.5994104}, {"county": "Groton", "lat": 42.6112018, "state": "MA", "lng": -71.5745152}, {"county": "Groveland", "lat": 42.76036879999999, "state": "MA", "lng": -71.0314451}, {"county": "Hadley", "lat": 42.3417565, "state": "MA", "lng": -72.58842220000001}, {"county": "Halifax", "lat": 41.99121299999999, "state": "MA", "lng": -70.86198499999999}, {"county": "Hamilton", "lat": 42.63620520000001, "state": "MA", "lng": -70.8431049}, {"county": "Hampden", "lat": 42.0639841, "state": "MA", "lng": -72.4134167}, {"county": "Hancock", "lat": 42.543138, "state": "MA", "lng": -73.32371820000002}, {"county": "Hanover", "lat": 42.1162217, "state": "MA", "lng": -70.8476708}, {"county": "Hanson", "lat": 42.0751892, "state": "MA", "lng": -70.8800187}, {"county": "Hardwick", "lat": 42.3490548, "state": "MA", "lng": -72.1986558}, {"county": "Harvard", "lat": 42.5000919, "state": "MA", "lng": -71.5828444}, {"county": "Harwich", "lat": 41.6716498, "state": "MA", "lng": -70.0622231}, {"county": "Hatfield", "lat": 42.3709761, "state": "MA", "lng": -72.5981843}, {"county": "Haverhill", "lat": 42.7762015, "state": "MA", "lng": -71.0772796}, {"county": "Hawley", "lat": 42.605083, "state": "MA", "lng": -72.9132446}, {"county": "Heath", "lat": 42.673417, "state": "MA", "lng": -72.82176179999999}, {"county": "Hingham", "lat": 42.2418172, "state": "MA", "lng": -70.889759}, {"county": "Hinsdale", "lat": 42.4386967, "state": "MA", "lng": -73.1253799}, {"county": "Holbrook", "lat": 42.144846, "state": "MA", "lng": -71.014118}, {"county": "Holden", "lat": 42.3517585, "state": "MA", "lng": -71.8634062}, {"county": "Holland", "lat": 42.0639524, "state": "MA", "lng": -72.15728849999999}, {"county": "Holliston", "lat": 42.20009659999999, "state": "MA", "lng": -71.4245049}, {"county": "Holyoke", "lat": 42.2042586, "state": "MA", "lng": -72.6162009}, {"county": "Hopedale", "lat": 42.1306522, "state": "MA", "lng": -71.5411747}, {"county": "Hopkinton", "lat": 42.22869540000001, "state": "MA", "lng": -71.5225646}, {"county": "Hubbardston", "lat": 42.4737009, "state": "MA", "lng": -72.0061877}, {"county": "Hudson", "lat": 42.39173599999999, "state": "MA", "lng": -71.56613899999999}, {"county": "Hull", "lat": 42.3020647, "state": "MA", "lng": -70.9078346}, {"county": "Huntington", "lat": 42.2335218, "state": "MA", "lng": -72.8796017}, {"county": "Ipswich", "lat": 42.6791832, "state": "MA", "lng": -70.8411558}, {"county": "Kingston", "lat": 41.9932752, "state": "MA", "lng": -70.7284785}, {"county": "Lakeville", "lat": 41.8459169, "state": "MA", "lng": -70.9495226}, {"county": "Lancaster", "lat": 42.4556452, "state": "MA", "lng": -71.6731242}, {"county": "Lanesborough", "lat": 42.5173058, "state": "MA", "lng": -73.2281596}, {"county": "Lawrence", "lat": 42.7070354, "state": "MA", "lng": -71.1631137}, {"county": "Lee", "lat": 42.3042151, "state": "MA", "lng": -73.2481951}, {"county": "Leicester", "lat": 42.245926, "state": "MA", "lng": -71.90868429999999}, {"county": "Lenox", "lat": 42.35646089999999, "state": "MA", "lng": -73.2848762}, {"county": "Leominster", "lat": 42.5250906, "state": "MA", "lng": -71.759794}, {"county": "Leverett", "lat": 42.4519581, "state": "MA", "lng": -72.5011335}, {"county": "Lexington", "lat": 42.4430372, "state": "MA", "lng": -71.2289641}, {"county": "Leyden", "lat": 42.7000837, "state": "MA", "lng": -72.6300909}, {"county": "Lincoln", "lat": 42.4259283, "state": "MA", "lng": -71.3039469}, {"county": "Littleton", "lat": 42.5372893, "state": "MA", "lng": -71.5128022}, {"county": "Longmeadow", "lat": 42.0501022, "state": "MA", "lng": -72.5828642}, {"county": "Lowell", "lat": 42.6334247, "state": "MA", "lng": -71.31617179999999}, {"county": "Ludlow", "lat": 42.1600936, "state": "MA", "lng": -72.47591899999999}, {"county": "Lunenburg", "lat": 42.5945273, "state": "MA", "lng": -71.7245035}, {"county": "Lynn", "lat": 42.46676300000001, "state": "MA", "lng": -70.9494938}, {"county": "Lynnfield", "lat": 42.53869, "state": "MA", "lng": -71.0465638}, {"county": "Malden", "lat": 42.4250964, "state": "MA", "lng": -71.066163}, {"county": "Manchester", "lat": 42.577834, "state": "MA", "lng": -70.7675967}, {"county": "Mansfield", "lat": 42.03345650000001, "state": "MA", "lng": -71.2190578}, {"county": "Marblehead", "lat": 42.49995819999999, "state": "MA", "lng": -70.8578024}, {"county": "Marion", "lat": 41.697719, "state": "MA", "lng": -70.7525299}, {"county": "Marlborough", "lat": 42.3459271, "state": "MA", "lng": -71.5522874}, {"county": "Marshfield", "lat": 42.0917453, "state": "MA", "lng": -70.7055871}, {"county": "Mashpee", "lat": 41.647872, "state": "MA", "lng": -70.4819674}, {"county": "Mattapoisett", "lat": 41.6616323, "state": "MA", "lng": -70.81507420000001}, {"county": "Maynard", "lat": 42.4334903, "state": "MA", "lng": -71.4495058}, {"county": "Medfield", "lat": 42.18758260000001, "state": "MA", "lng": -71.30645969999999}, {"county": "Medford", "lat": 42.4184296, "state": "MA", "lng": -71.1061639}, {"county": "Medway", "lat": 42.1417641, "state": "MA", "lng": -71.3967256}, {"county": "Melrose", "lat": 42.4584292, "state": "MA", "lng": -71.0661633}, {"county": "Mendon", "lat": 42.1056525, "state": "MA", "lng": -71.5522859}, {"county": "Merrimac", "lat": 42.8340582, "state": "MA", "lng": -71.0005509}, {"county": "Methuen", "lat": 42.7262016, "state": "MA", "lng": -71.1908924}, {"county": "Middleborough", "lat": 41.8929942, "state": "MA", "lng": -70.9107708}, {"county": "Middlefield", "lat": 42.3484207, "state": "MA", "lng": -73.01510110000001}, {"county": "Middleton", "lat": 42.59509389999999, "state": "MA", "lng": -71.0161643}, {"county": "Milford", "lat": 42.1398577, "state": "MA", "lng": -71.5163049}, {"county": "Millbury", "lat": 42.19207189999999, "state": "MA", "lng": -71.761522}, {"county": "Millis", "lat": 42.1669661, "state": "MA", "lng": -71.351738}, {"county": "Millville", "lat": 42.0278756, "state": "MA", "lng": -71.5808973}, {"county": "Milton", "lat": 42.2495321, "state": "MA", "lng": -71.0661653}, {"county": "Monroe", "lat": 42.7143925, "state": "MA", "lng": -73.0051055}, {"county": "Monson", "lat": 42.1042451, "state": "MA", "lng": -72.3189519}, {"county": "Montague", "lat": 42.5355277, "state": "MA", "lng": -72.5353437}, {"county": "Monterey", "lat": 42.1792563, "state": "MA", "lng": -73.21205259999999}, {"county": "Montgomery", "lat": 42.2067573, "state": "MA", "lng": -72.8050954}, {"county": "Mount Washington", "lat": 42.0850246, "state": "MA", "lng": -73.4516852}, {"county": "Nahant", "lat": 42.42651619999999, "state": "MA", "lng": -70.9188695}, {"county": "Nantucket", "lat": 41.2834704, "state": "MA", "lng": -70.099451}, {"county": "Natick", "lat": 42.2775281, "state": "MA", "lng": -71.3468091}, {"county": "Needham", "lat": 42.2809285, "state": "MA", "lng": -71.23775479999999}, {"county": "New Ashford", "lat": 42.605082, "state": "MA", "lng": -73.2395502}, {"county": "New Bedford", "lat": 41.6362152, "state": "MA", "lng": -70.93420499999999}, {"county": "New Braintree", "lat": 42.3167581, "state": "MA", "lng": -72.12591139999999}, {"county": "Newbury", "lat": 42.7649497, "state": "MA", "lng": -70.8714528}, {"county": "Newburyport", "lat": 42.8125913, "state": "MA", "lng": -70.87727509999999}, {"county": "New Marlborough", "lat": 42.1111825, "state": "MA", "lng": -73.2529464}, {"county": "New Salem", "lat": 42.50425509999999, "state": "MA", "lng": -72.3320289}, {"county": "Newton", "lat": 42.3370413, "state": "MA", "lng": -71.20922139999999}, {"county": "Norfolk", "lat": 42.1195426, "state": "MA", "lng": -71.3250563}, {"county": "North Adams", "lat": 42.70091499999999, "state": "MA", "lng": -73.1087148}, {"county": "Northampton", "lat": 42.3250896, "state": "MA", "lng": -72.64120129999999}, {"county": "North Andover", "lat": 42.69870239999999, "state": "MA", "lng": -71.1350575}, {"county": "North Attleborough", "lat": 41.9695516, "state": "MA", "lng": -71.35654389999999}, {"county": "Northborough", "lat": 42.3195556, "state": "MA", "lng": -71.6411997}, {"county": "Northbridge", "lat": 42.1516323, "state": "MA", "lng": -71.6494407}, {"county": "North Brookfield", "lat": 42.2685574, "state": "MA", "lng": -72.08503999999999}, {"county": "Northfield", "lat": 42.6959093, "state": "MA", "lng": -72.4528885}, {"county": "North Reading", "lat": 42.5750939, "state": "MA", "lng": -71.0786653}, {"county": "Norton", "lat": 41.9667703, "state": "MA", "lng": -71.1869963}, {"county": "Norwell", "lat": 42.1615157, "state": "MA", "lng": -70.7927832}, {"county": "Norwood", "lat": 42.19439089999999, "state": "MA", "lng": -71.19896949999999}, {"county": "Oak Bluffs", "lat": 41.4542793, "state": "MA", "lng": -70.5619724}, {"county": "Oakham", "lat": 42.35271050000001, "state": "MA", "lng": -72.0449783}, {"county": "Orange", "lat": 42.590354, "state": "MA", "lng": -72.3097914}, {"county": "Orleans", "lat": 41.7898354, "state": "MA", "lng": -69.9897323}, {"county": "Otis", "lat": 42.1930224, "state": "MA", "lng": -73.0919689}, {"county": "Oxford", "lat": 42.1167606, "state": "MA", "lng": -71.8647577}, {"county": "Palmer", "lat": 42.1584103, "state": "MA", "lng": -72.3286869}, {"county": "Paxton", "lat": 42.3114889, "state": "MA", "lng": -71.9278427}, {"county": "Peabody", "lat": 42.5278731, "state": "MA", "lng": -70.9286609}, {"county": "Pelham", "lat": 42.3931455, "state": "MA", "lng": -72.40369609999999}, {"county": "Pembroke", "lat": 42.0714925, "state": "MA", "lng": -70.80919999999999}, {"county": "Pepperell", "lat": 42.66592319999999, "state": "MA", "lng": -71.5884363}, {"county": "Peru", "lat": 42.4381417, "state": "MA", "lng": -73.0459339}, {"county": "Petersham", "lat": 42.4837752, "state": "MA", "lng": -72.186669}, {"county": "Phillipston", "lat": 42.5486993, "state": "MA", "lng": -72.1328582}, {"county": "Pittsfield", "lat": 42.4500845, "state": "MA", "lng": -73.2453824}, {"county": "Plainfield", "lat": 42.5153633, "state": "MA", "lng": -72.9162075}, {"county": "Plainville", "lat": 42.0042655, "state": "MA", "lng": -71.3328331}, {"county": "Plymouth", "lat": 41.9584457, "state": "MA", "lng": -70.6672621}, {"county": "Plympton", "lat": 41.95589529999999, "state": "MA", "lng": -70.8148435}, {"county": "Princeton", "lat": 42.4487019, "state": "MA", "lng": -71.877296}, {"county": "Provincetown", "lat": 42.0584412, "state": "MA", "lng": -70.1786425}, {"county": "Quincy", "lat": 42.2528772, "state": "MA", "lng": -71.0022705}, {"county": "Randolph", "lat": 42.1619739, "state": "MA", "lng": -71.042551}, {"county": "Raynham", "lat": 41.9487077, "state": "MA", "lng": -71.0731162}, {"county": "Reading", "lat": 42.5256563, "state": "MA", "lng": -71.0952891}, {"county": "Rehoboth", "lat": 41.8470056, "state": "MA", "lng": -71.2393933}, {"county": "Revere", "lat": 42.4084302, "state": "MA", "lng": -71.0119948}, {"county": "Richmond", "lat": 42.3729519, "state": "MA", "lng": -73.3676804}, {"county": "Rochester", "lat": 41.7549658, "state": "MA", "lng": -70.8452677}, {"county": "Rockland", "lat": 42.1306563, "state": "MA", "lng": -70.9161551}, {"county": "Rockport", "lat": 42.6556505, "state": "MA", "lng": -70.620363}, {"county": "Rowe", "lat": 42.6934166, "state": "MA", "lng": -72.899542}, {"county": "Rowley", "lat": 42.7167483, "state": "MA", "lng": -70.8787277}, {"county": "Royalston", "lat": 42.6775856, "state": "MA", "lng": -72.18786039999999}, {"county": "Russell", "lat": 42.189861, "state": "MA", "lng": -72.8591256}, {"county": "Rutland", "lat": 42.3695086, "state": "MA", "lng": -71.9481211}, {"county": "Salem", "lat": 42.51954, "state": "MA", "lng": -70.8967155}, {"county": "Salisbury", "lat": 42.84172299999999, "state": "MA", "lng": -70.8605982}, {"county": "Sandisfield", "lat": 42.1125914, "state": "MA", "lng": -73.1431637}, {"county": "Sandwich", "lat": 41.7589615, "state": "MA", "lng": -70.49393169999999}, {"county": "Saugus", "lat": 42.4651421, "state": "MA", "lng": -71.0110473}, {"county": "Savoy", "lat": 42.5667512, "state": "MA", "lng": -73.0287112}, {"county": "Scituate", "lat": 42.195929, "state": "MA", "lng": -70.7258633}, {"county": "Seekonk", "lat": 41.808434, "state": "MA", "lng": -71.3369972}, {"county": "Sharon", "lat": 42.1236499, "state": "MA", "lng": -71.1786237}, {"county": "Sheffield", "lat": 42.1099885, "state": "MA", "lng": -73.35514359999999}, {"county": "Shelburne", "lat": 42.5898074, "state": "MA", "lng": -72.6884244}, {"county": "Sherborn", "lat": 42.23898570000001, "state": "MA", "lng": -71.3697813}, {"county": "Shirley", "lat": 42.5437035, "state": "MA", "lng": -71.6495176}, {"county": "Shrewsbury", "lat": 42.2959267, "state": "MA", "lng": -71.71284709999999}, {"county": "Shutesbury", "lat": 42.4564779, "state": "MA", "lng": -72.4098077}, {"county": "Somerset", "lat": 41.7695425, "state": "MA", "lng": -71.12861939999999}, {"county": "Somerville", "lat": 42.3875968, "state": "MA", "lng": -71.0994968}, {"county": "Southampton", "lat": 42.2292572, "state": "MA", "lng": -72.7300929}, {"county": "Southborough", "lat": 42.3056501, "state": "MA", "lng": -71.5245087}, {"county": "Southbridge", "lat": 42.0751065, "state": "MA", "lng": -72.0333905}, {"county": "South Hadley", "lat": 42.2591729, "state": "MA", "lng": -72.57479339999999}, {"county": "Southwick", "lat": 42.0548167, "state": "MA", "lng": -72.7703724}, {"county": "Spencer", "lat": 42.2439682, "state": "MA", "lng": -71.9922867}, {"county": "Springfield", "lat": 42.1014831, "state": "MA", "lng": -72.589811}, {"county": "Sterling", "lat": 42.4374156, "state": "MA", "lng": -71.76062929999999}, {"county": "Stockbridge", "lat": 42.2875874, "state": "MA", "lng": -73.3203862}, {"county": "Stoneham", "lat": 42.4802469, "state": "MA", "lng": -71.0999719}, {"county": "Stoughton", "lat": 42.1229099, "state": "MA", "lng": -71.10920120000002}, {"county": "Stow", "lat": 42.4370374, "state": "MA", "lng": -71.5056199}, {"county": "Sturbridge", "lat": 42.1084122, "state": "MA", "lng": -72.0787059}, {"county": "Sudbury", "lat": 42.3834278, "state": "MA", "lng": -71.4161725}, {"county": "Sunderland", "lat": 42.4663727, "state": "MA", "lng": -72.5795115}, {"county": "Sutton", "lat": 42.1500353, "state": "MA", "lng": -71.7632878}, {"county": "Swampscott", "lat": 42.47094370000001, "state": "MA", "lng": -70.91755619999999}, {"county": "Swansea", "lat": 41.748162, "state": "MA", "lng": -71.1895617}, {"county": "Taunton", "lat": 41.900101, "state": "MA", "lng": -71.0897674}, {"county": "Templeton", "lat": 42.555644, "state": "MA", "lng": -72.06757900000001}, {"county": "Tewksbury", "lat": 42.6106478, "state": "MA", "lng": -71.23422479999999}, {"county": "Tisbury", "lat": 41.4558899, "state": "MA", "lng": -70.6141097}, {"county": "Tolland", "lat": 42.0813879, "state": "MA", "lng": -73.01186679999999}, {"county": "Topsfield", "lat": 42.6375941, "state": "MA", "lng": -70.9495053}, {"county": "Townsend", "lat": 42.6667718, "state": "MA", "lng": -71.70512649999999}, {"county": "Truro", "lat": 41.99477, "state": "MA", "lng": -70.0490107}, {"county": "Tyngsborough", "lat": 42.6766696, "state": "MA", "lng": -71.4244224}, {"county": "Tyringham", "lat": 42.2459215, "state": "MA", "lng": -73.20371709999999}, {"county": "Upton", "lat": 42.1744878, "state": "MA", "lng": -71.6022583}, {"county": "Uxbridge", "lat": 42.07724289999999, "state": "MA", "lng": -71.6302532}, {"county": "Wakefield", "lat": 42.5039395, "state": "MA", "lng": -71.0723391}, {"county": "Wales", "lat": 42.0695393, "state": "MA", "lng": -72.22230069999999}, {"county": "Walpole", "lat": 42.1417442, "state": "MA", "lng": -71.2495096}, {"county": "Waltham", "lat": 42.3764852, "state": "MA", "lng": -71.2356113}, {"county": "Ware", "lat": 42.2598457, "state": "MA", "lng": -72.2398566}, {"county": "Wareham", "lat": 41.7614511, "state": "MA", "lng": -70.71973419999999}, {"county": "Warren", "lat": 42.2125423, "state": "MA", "lng": -72.19118499999999}, {"county": "Warwick", "lat": 42.6820293, "state": "MA", "lng": -72.33897429999999}, {"county": "Washington", "lat": 42.36592, "state": "MA", "lng": -73.116214}, {"county": "Watertown", "lat": 42.3709299, "state": "MA", "lng": -71.1828321}, {"county": "Wayland", "lat": 42.3625953, "state": "MA", "lng": -71.3614484}, {"county": "Webster", "lat": 42.05009099999999, "state": "MA", "lng": -71.88006279999999}, {"county": "Wellesley", "lat": 42.296797, "state": "MA", "lng": -71.29238769999999}, {"county": "Wellfleet", "lat": 41.93054679999999, "state": "MA", "lng": -70.03097530000001}, {"county": "Wendell", "lat": 42.5481852, "state": "MA", "lng": -72.396722}, {"county": "Wenham", "lat": 42.604261, "state": "MA", "lng": -70.8911612}, {"county": "Westborough", "lat": 42.2695216, "state": "MA", "lng": -71.61612939999999}, {"county": "West Boylston", "lat": 42.3667589, "state": "MA", "lng": -71.78562699999999}, {"county": "West Bridgewater", "lat": 42.0189894, "state": "MA", "lng": -71.00782149999999}, {"county": "West Brookfield", "lat": 42.2353463, "state": "MA", "lng": -72.14116419999999}, {"county": "Westfield", "lat": 42.1250929, "state": "MA", "lng": -72.749538}, {"county": "Westford", "lat": 42.5792583, "state": "MA", "lng": -71.4378411}, {"county": "Westhampton", "lat": 42.3028667, "state": "MA", "lng": -72.7745382}, {"county": "Westminster", "lat": 42.5459227, "state": "MA", "lng": -71.91063079999999}, {"county": "West Newbury", "lat": 42.8014795, "state": "MA", "lng": -70.989778}, {"county": "Weston", "lat": 42.3667625, "state": "MA", "lng": -71.3031132}, {"county": "Westport", "lat": 41.5700183, "state": "MA", "lng": -71.0735476}, {"county": "West Springfield", "lat": 42.1070383, "state": "MA", "lng": -72.6203675}, {"county": "West Stockbridge", "lat": 42.3338097, "state": "MA", "lng": -73.3677582}, {"county": "West Tisbury", "lat": 41.38122449999999, "state": "MA", "lng": -70.6744723}, {"county": "Westwood", "lat": 42.21398730000001, "state": "MA", "lng": -71.2244987}, {"county": "Weymouth", "lat": 42.2180724, "state": "MA", "lng": -70.94103559999999}, {"county": "Whately", "lat": 42.4398101, "state": "MA", "lng": -72.6348118}, {"county": "Whitman", "lat": 42.0806564, "state": "MA", "lng": -70.935599}, {"county": "Wilbraham", "lat": 42.1237206, "state": "MA", "lng": -72.431586}, {"county": "Williamsburg", "lat": 42.3928305, "state": "MA", "lng": -72.7300929}, {"county": "Williamstown", "lat": 42.7120196, "state": "MA", "lng": -73.20368979999999}, {"county": "Wilmington", "lat": 42.5481714, "state": "MA", "lng": -71.1724467}, {"county": "Winchendon", "lat": 42.6871009, "state": "MA", "lng": -72.0439529}, {"county": "Winchester", "lat": 42.452303, "state": "MA", "lng": -71.1369959}, {"county": "Windsor", "lat": 42.5090217, "state": "MA", "lng": -73.0457124}, {"county": "Winthrop", "lat": 42.3778173, "state": "MA", "lng": -70.98113339999999}, {"county": "Woburn", "lat": 42.4792618, "state": "MA", "lng": -71.1522765}, {"county": "Worcester", "lat": 42.2625932, "state": "MA", "lng": -71.8022934}, {"county": "Worthington", "lat": 42.3973092, "state": "MA", "lng": -72.9356536}, {"county": "Wrentham", "lat": 42.0667652, "state": "MA", "lng": -71.3281114}, {"county": "Yarmouth", "lat": 41.7056291, "state": "MA", "lng": -70.2286681}, {"county": "Allegany", "lat": 39.6255251, "state": "MD", "lng": -78.6114999}, {"county": "Anne Arundel", "lat": 38.9530109, "state": "MD", "lng": -76.5488232}, {"county": "Baltimore", "lat": 39.2903848, "state": "MD", "lng": -76.6121893}, {"county": "Baltimore City", "lat": 39.2903848, "state": "MD", "lng": -76.6121893}, {"county": "Calvert", "lat": 38.49495030000001, "state": "MD", "lng": -76.5025742}, {"county": "Caroline", "lat": 38.9105018, "state": "MD", "lng": -75.8533954}, {"county": "Carroll", "lat": 39.5423418, "state": "MD", "lng": -77.0564464}, {"county": "Cecil", "lat": 39.5739403, "state": "MD", "lng": -75.94632399999999}, {"county": "Charles", "lat": 38.5221781, "state": "MD", "lng": -77.10249019999999}, {"county": "Dorchester", "lat": 38.4152819, "state": "MD", "lng": -76.17837390000001}, {"county": "Frederick", "lat": 39.41426879999999, "state": "MD", "lng": -77.4105409}, {"county": "Garrett", "lat": 39.5681243, "state": "MD", "lng": -79.29021329999999}, {"county": "Harford", "lat": 39.5838964, "state": "MD", "lng": -76.3637285}, {"county": "Howard", "lat": 39.2873463, "state": "MD", "lng": -76.964306}, {"county": "Kent", "lat": 39.2713804, "state": "MD", "lng": -76.1319953}, {"county": "Montgomery", "lat": 39.1547426, "state": "MD", "lng": -77.2405153}, {"county": "Prince George's", "lat": 38.78492110000001, "state": "MD", "lng": -76.8720961}, {"county": "Queen Anne's", "lat": 39.0263572, "state": "MD", "lng": -76.1319953}, {"county": "St. Mary's", "lat": 38.1060259, "state": "MD", "lng": -76.3637285}, {"county": "Somerset", "lat": 38.9659438, "state": "MD", "lng": -77.0960893}, {"county": "Talbot", "lat": 38.7803973, "state": "MD", "lng": -76.1319953}, {"county": "Washington", "lat": 39.641762, "state": "MD", "lng": -77.719993}, {"county": "Wicomico", "lat": 38.41345810000001, "state": "MD", "lng": -76.8766366}, {"county": "Worcester", "lat": 38.1584227, "state": "MD", "lng": -75.4344727}, {"county": "Abbot", "lat": 45.1861838, "state": "ME", "lng": -69.45234769999999}, {"county": "Acton", "lat": 43.5233821, "state": "ME", "lng": -70.9277544}, {"county": "Addison", "lat": 44.6184102, "state": "ME", "lng": -67.7441645}, {"county": "Albion", "lat": 44.53229020000001, "state": "ME", "lng": -69.4425423}, {"county": "Alexander", "lat": 45.0886862, "state": "ME", "lng": -67.4683278}, {"county": "Alfred", "lat": 43.4764994, "state": "ME", "lng": -70.7161687}, {"county": "Allagash", "lat": 47.0833103, "state": "ME", "lng": -69.04174809999999}, {"county": "Alna", "lat": 44.1061869, "state": "ME", "lng": -69.6036567}, {"county": "Alton", "lat": 45.0314546, "state": "ME", "lng": -68.7286452}, {"county": "Amherst", "lat": 44.8323419, "state": "ME", "lng": -68.3640454}, {"county": "Amity", "lat": 45.9305781, "state": "ME", "lng": -67.8493378}, {"county": "Andover", "lat": 44.63561660000001, "state": "ME", "lng": -70.7511813}, {"county": "Anson", "lat": 44.7983618, "state": "ME", "lng": -69.8892408}, {"county": "Appleton", "lat": 44.289243, "state": "ME", "lng": -69.2508768}, {"county": "Aroostook Cty Townships", "lat": 45.6597861, "state": "ME", "lng": -67.7297303}, {"county": "Arrowsic", "lat": 43.8498037, "state": "ME", "lng": -69.7781013}, {"county": "Arundel", "lat": 43.4243008, "state": "ME", "lng": -70.5141622}, {"county": "Ashland", "lat": 46.6609983, "state": "ME", "lng": -68.3895277}, {"county": "Athens", "lat": 44.92311420000001, "state": "ME", "lng": -69.67282960000001}, {"county": "Atkinson", "lat": 45.1868588, "state": "ME", "lng": -69.0910809}, {"county": "Auburn", "lat": 44.0978509, "state": "ME", "lng": -70.2311655}, {"county": "Augusta", "lat": 44.3106241, "state": "ME", "lng": -69.7794897}, {"county": "Aurora", "lat": 44.8587319, "state": "ME", "lng": -68.3166626}, {"county": "Avon", "lat": 44.80616819999999, "state": "ME", "lng": -70.27117659999999}, {"county": "Baileyville", "lat": 45.1815281, "state": "ME", "lng": -67.441251}, {"county": "Baldwin", "lat": 43.81829219999999, "state": "ME", "lng": -70.7359395}, {"county": "Bancroft", "lat": 45.6736718, "state": "ME", "lng": -68.0308491}, {"county": "Bangor", "lat": 44.80118210000001, "state": "ME", "lng": -68.77781379999999}, {"county": "Bar Harbor", "lat": 44.3876119, "state": "ME", "lng": -68.2039123}, {"county": "Baring Plt.", "lat": 45.0942523, "state": "ME", "lng": -67.30567479999999}, {"county": "Bath", "lat": 43.9106353, "state": "ME", "lng": -69.82060229999999},